$PSAMID,SLL_3.4.14_KXB24_T18,*06
$GPGGA,184354.310,,,,,0,,,,,,,,*75
$GPGLL,2200.6044,S,04753.3616,W,184354.310,V,N*42
$GPVTG,0.0,T,,M,0.0,N,0.0,K,N*02
$GPGSV,2,1,07,10,63,293,32,12,30,213,37,15,00,000,35,18,27,106,38*76
$GPGSV,2,2,07,23,45,156,44,26,31,305,37,31,04,010,34*48
$GLGSV,2,1,07,65,34,092,27,72,10,139,32,78,53,288,41,79,26,223,44*62
$GLGSV,2,2,07,81,26,232,38,87,10,127,31,88,34,170,42*58
$BDGSV,1,1,01,229,13,101,29*69
$GPRMC,184354.310,V,,,,,,,171022,,,N*47
$PSAMCLK,2232,15385231,0,9657813,1149761,153852311*41
$GPGGA,184355.311,,,,,0,,,,,,,,*75
$GPGLL,2200.6044,S,04753.3616,W,184355.311,V,N*42
$GPVTG,0.0,T,,M,0.0,N,0.0,K,N*02
$GPGSV,2,1,07,10,63,293,31,12,30,213,37,15,00,000,34,18,27,106,38*74
$GPGSV,2,2,07,23,45,156,43,26,31,305,37,31,04,010,34*4F
$GLGSV,2,1,07,65,34,092,27,72,10,139,32,78,53,288,41,79,26,223,44*62
$GLGSV,2,2,07,81,26,232,39,87,10,127,31,88,34,170,42*59
$BDGSV,1,1,01,229,13,101,29*69
$GPRMC,184355.311,V,,,,,,,171022,,,N*47
$PSAMCLK,2232,15385331,0,9657813,1211125,153853312*4A
$PSAMDLOK,79,0x00F,0x000*57
$PSAMDLOK,81,0x00F,0x000*50
$PSAMDLOK,78,0x000,0x000*20
$PSAMDLOK,65,0x000,0x00F*5A
$PSAMDLOK,88,0x00F,0x000*59
$PSAMDLOK,72,0x000,0x000*2A
$PSAMDLOK,167,0x37D,0x01F*18
$PSAMDLOK,87,0x000,0x00F*56
$PSAMID,SLL_3.4.14_KXB24_T18,*06
$GPGGA,184356.310,,,,,0,,,,,,,,*77
$GPGLL,2200.6044,S,04753.3616,W,184356.310,V,N*40
$GPVTG,0.0,T,,M,0.0,N,0.0,K,N*02
$GPGSV,2,1,07,10,63,293,33,12,30,213,38,15,00,000,34,18,27,106,38*79
$GPGSV,2,2,07,23,45,156,43,26,31,305,37,31,04,010,34*4F
$GLGSV,2,1,07,65,34,092,27,72,10,139,32,78,53,288,41,79,26,223,44*62
$GLGSV,2,2,07,81,26,232,40,87,10,127,30,88,34,170,41*55
$BDGSV,1,1,01,229,13,101,30*61
$GPRMC,184356.310,V,,,,,,,171022,,,N*45
$PSAMCLK,2232,15385431,0,9657813,1272404,153854311*4A
$GPGGA,184357.311,,,,,0,,,,,,,,*77
$GPGLL,2200.6044,S,04753.3616,W,184357.311,V,N*40
$GPVTG,0.0,T,,M,0.0,N,0.0,K,N*02
$GPGSV,2,1,07,10,63,293,36,12,30,213,38,15,00,000,39,18,27,106,39*70
$GPGSV,2,2,07,23,45,156,43,26,31,305,37,31,04,010,34*4F
$GLGSV,2,1,07,65,34,092,35,72,10,139,32,78,53,288,41,79,26,223,44*61
$GLGSV,2,2,07,81,26,232,40,87,10,127,30,88,34,170,41*55
$BDGSV,1,1,01,229,13,101,42*64
$GPRMC,184357.311,V,,,,,,,171022,,,N*45
$PSAMCLK,2232,15385531,0,9657813,1333729,153855312*41
$PSAMDLOK,78,0x000,0x000*20
$PSAMDLOK,65,0x000,0x00F*5A
$PSAMDLOK,88,0x000,0x000*2F
$PSAMDLOK,79,0x000,0x00F*57
$PSAMDLOK,87,0x00F,0x000*56
$PSAMDLOK,72,0x000,0x000*2A
$PSAMDLOK,81,0x00F,0x00F*26
$PSAMID,SLL_3.4.14_KXB24_T18,*06
$GPGGA,184358.307,,,,,0,,,,,,,,*7F
$GPGLL,2200.6044,S,04753.3616,W,184358.307,V,N*48
$GPVTG,0.0,T,,M,0.0,N,0.0,K,N*02
$GPGSV,2,1,07,10,63,293,35,12,30,213,41,15,00,000,39,18,27,106,43*70
$GPGSV,2,2,07,23,45,156,42,26,31,305,37,31,04,010,34*4E
$GLGSV,2,1,07,65,34,092,38,72,10,139,32,78,53,288,41,79,26,223,43*6B
$GLGSV,2,2,07,81,26,232,39,87,10,127,35,88,34,170,40*5F
$BDGSV,1,1,01,229,13,101,42*64
$GPRMC,184358.307,V,,,,,,,171022,,,N*4D
$PSAMCLK,2232,15385631,0,9657813,1394789,153856308*4D
$GPGGA,184359.308,,,,,0,,,,,,,,*71
$GPGLL,2200.6044,S,04753.3616,W,184359.308,V,N*46
$GPVTG,0.0,T,,M,0.0,N,0.0,K,N*02
$GPGSV,2,1,07,10,63,293,34,12,30,213,44,15,00,000,39,18,27,106,43*74
$GPGSV,2,2,07,23,45,156,42,26,31,305,36,31,04,010,34*4F
$GLGSV,2,1,07,65,34,092,39,72,10,139,31,78,53,288,41,79,26,223,42*68
$GLGSV,2,2,07,81,26,232,38,87,10,127,35,88,34,170,40*5E
$BDGSV,1,1,01,229,13,101,42*64
$GPRMC,184359.308,V,,,,,,,171022,,,N*43
$PSAMCLK,2232,15385731,0,9657813,1456154,153857309*43
$PSAMDLOK,18,0x3FE,0x003*25
$PSAMDLERR,23,2,0x3F3*53
$PSAMDLERR,31,2,0x3CF*20
$PSAMDLERR,12,4,0x1E3*56
$PSAMDLERR,26,4,0x0D7*55
$PSAMDLOK,10,0x33F,0x080*50
$PSAMDLERR,15,3,0x35B*55
$PSAMDLOK,79,0x00F,0x000*57
$PSAMDLOK,88,0x000,0x000*2F
$PSAMDLOK,78,0x00F,0x000*56
$PSAMDLOK,65,0x00F,0x000*5A
$PSAMDLOK,87,0x00F,0x000*56
$PSAMDLOK,81,0x00F,0x00F*26
$PSAMDLOK,72,0x000,0x000*2A
$PSAMID,SLL_3.4.14_KXB24_T18,*06
$GPGGA,184400.309,,,,,0,,,,,,,,*7B
$GPGLL,2200.6044,S,04753.3616,W,184400.309,V,N*4C
$GPVTG,0.0,T,,M,0.0,N,0.0,K,N*02
$GPGSV,2,1,07,10,63,293,34,12,30,213,44,15,00,000,38,18,27,106,43*75
$GPGSV,2,2,07,23,45,156,42,26,31,305,36,31,04,010,34*4F
$GLGSV,2,1,07,65,34,092,39,72,10,139,31,78,53,288,41,79,26,223,42*68
$GLGSV,2,2,07,81,26,232,38,87,10,127,35,88,34,170,41*5F
$BDGSV,1,1,01,229,13,101,42*64
$GPRMC,184400.309,V,,,,,,,171022,,,N*49
$PSAMCLK,2232,15385831,0,9657813,1517518,153858310*43
$GPGGA,184401.310,,,,,0,,,,,,,,*72
$GPGLL,2200.6044,S,04753.3616,W,184401.310,V,N*45
$GPVTG,0.0,T,,M,0.0,N,0.0,K,N*02
$GPGSV,2,1,07,10,63,293,33,12,30,213,43,15,00,000,38,18,27,106,43*75
$GPGSV,2,2,07,23,45,156,42,26,31,305,36,31,04,010,34*4F
$GLGSV,2,1,07,65,34,092,39,72,10,139,31,78,53,288,41,79,26,223,44*6E
$GLGSV,2,2,07,81,26,232,38,87,10,127,35,88,34,170,41*5F
$BDGSV,1,1,01,229,13,101,42*64
$GPRMC,184401.310,V,,,,,,,171022,,,N*40
$PSAMCLK,2232,15385931,0,9657813,1578883,153859311*44
$PSAMDLOK,167,0x3FF,0x000*1C
$PSAMDLOK,78,0x00F,0x000*56
$PSAMDLOK,65,0x00F,0x000*5A
$PSAMDLOK,79,0x000,0x000*21
$PSAMDLOK,81,0x000,0x000*26
$PSAMDLOK,87,0x00F,0x000*56
$PSAMDLOK,88,0x000,0x000*2F
$PSAMDLOK,72,0x000,0x000*2A
$PSAMID,SLL_3.4.14_KXB24_T18,*06
$GPGGA,184402.310,,,,,0,,,,,,,,*71
$GPGLL,2200.6044,S,04753.3616,W,184402.310,V,N*46
$GPVTG,0.0,T,,M,0.0,N,0.0,K,N*02
$GPGSV,2,1,07,10,63,293,32,12,30,213,43,15,00,000,44,18,27,106,42*7E
$GPGSV,2,2,07,23,45,156,42,26,31,305,35,31,04,010,34*4C
$GLGSV,2,1,07,65,34,092,39,72,10,139,31,78,53,288,42,79,26,223,43*6A
$GLGSV,2,2,07,81,26,232,37,87,10,127,35,88,34,170,40*51
$BDGSV,1,1,01,229,13,101,42*64
$GPRMC,184402.310,V,,,,,,,171022,,,N*43
$PSAMCLK,2232,15386031,0,9657813,1640217,153860312*48
$GPGGA,184403.312,,,,,0,,,,,,,,*72
$GPGLL,2200.6044,S,04753.3616,W,184403.312,V,N*45
$GPVTG,0.0,T,,M,0.0,N,0.0,K,N*02
$GPGSV,2,1,07,10,63,293,32,12,30,213,43,15,00,000,44,18,27,106,42*7E
$GPGSV,2,2,07,23,45,156,42,26,31,305,35,31,04,010,34*4C
$GLGSV,2,1,07,65,34,092,39,72,10,139,31,78,53,288,42,79,26,223,42*6B
$GLGSV,2,2,07,81,26,232,37,87,10,127,35,88,34,170,40*51
$BDGSV,1,1,01,229,13,101,42*64
$GPRMC,184403.312,V,,,,,,,171022,,,N*40
$PSAMCLK,2232,15386131,0,9657813,1701611,153861313*4F
$PSAMDLOK,78,0x00F,0x000*56
$PSAMDLOK,65,0x00F,0x000*5A
$PSAMDLOK,79,0x00F,0x000*57
$PSAMDLOK,72,0x00F,0x000*5C
$PSAMDLOK,81,0x00F,0x000*50
$PSAMDLOK,87,0x00F,0x000*56
$PSAMDLOK,88,0x00F,0x000*59
$PSAMID,SLL_3.4.14_KXB24_T18,*06
$GPGGA,184404.312,,,,,0,,,,,,,,*75
$GPGLL,2200.6044,S,04753.3616,W,184404.312,V,N*42
$GPVTG,0.0,T,,M,0.0,N,0.0,K,N*02
$GPGSV,2,1,07,10,63,293,32,12,30,213,43,15,00,000,44,18,27,106,41*7D
$GPGSV,2,2,07,23,45,156,41,26,31,305,35,31,04,010,38*43
$GLGSV,2,1,07,65,34,092,39,72,10,139,34,78,53,288,42,79,26,223,42*6E
$GLGSV,2,2,07,81,26,232,37,87,10,127,35,88,34,170,39*5F
$BDGSV,1,1,01,229,13,101,42*64
$GPRMC,184404.312,V,,,,,,,171022,,,N*47
$PSAMCLK,2232,15386231,0,9657813,1762946,153862314*40
$GPGGA,184405.314,,,,,0,,,,,,,,*72
$GPGLL,2200.6044,S,04753.3616,W,184405.314,V,N*45
$GPVTG,0.0,T,,M,0.0,N,0.0,K,N*02
$GPGSV,2,1,07,10,63,293,36,12,30,213,44,15,00,000,44,18,27,106,41*7E
$GPGSV,2,2,07,23,45,156,41,26,31,305,35,31,04,010,38*43
$GLGSV,2,1,07,65,34,092,39,72,10,139,34,78,53,288,43,79,26,223,41*6C
$GLGSV,2,2,07,81,26,232,37,87,10,127,35,88,34,170,39*5F
$BDGSV,1,1,01,229,13,101,43*65
$GPRMC,184405.314,V,,,,,,,171022,,,N*40
$PSAMCLK,2232,15386331,0,9657813,1824340,153863315*40
$PSAMDLOK,12,0x3FF,0x000*2F
$PSAMDLOK,15,0x3FF,0x000*28
$PSAMDLOK,23,0x3FF,0x000*2D
$PSAMDLOK,10,0x3F8,0x006*55
$PSAMDLOK,31,0x3FF,0x000*2E
$PSAMDLERR,26,1,0x3FD*22
$PSAMDLOK,18,0x3FF,0x000*25
$PSAMDLOK,78,0x00F,0x000*56
$PSAMDLOK,88,0x00F,0x000*59
$PSAMDLOK,79,0x00F,0x000*57
$PSAMDLOK,65,0x00F,0x000*5A
$PSAMDLOK,81,0x00F,0x000*50
$PSAMDLOK,87,0x00F,0x000*56
$PSAMDLOK,72,0x000,0x000*2A
$PSAMID,SLL_3.4.14_KXB24_T18,*06
$GPGGA,184406.315,,,,,0,,,,,,,,*70
$GPGLL,2200.6044,S,04753.3616,W,184406.315,V,N*47
$GPVTG,0.0,T,,M,0.0,N,0.0,K,N*02
$GPGSV,2,1,07,10,63,293,39,12,30,213,48,15,00,086,44,18,27,106,40*72
$GPGSV,2,2,07,23,45,156,41,26,31,305,36,31,04,010,38*40
$GLGSV,2,1,08,65,34,093,39,72,10,140,34,77,22,355,30,78,53,288,43*60
$GLGSV,2,2,08,79,26,223,41,81,26,232,36,87,10,127,35,88,34,170,43*60
$BDGSV,1,1,02,222,20,359,38,229,13,101,43*62
$GPRMC,184406.315,V,,,,,,,171022,,,N*42
$PSAMCLK,2232,15386432,0,9657813,1885731,153864317*48
$GPGGA,184407.316,,,,,0,,,,,,,,*72
$GPGLL,2200.6044,S,04753.3616,W,184407.316,V,N*45
$GPVTG,0.0,T,,M,0.0,N,0.0,K,N*02
$GPGSV,2,1,07,10,63,293,39,12,30,213,48,15,00,086,44,18,27,106,40*72
$GPGSV,2,2,07,23,45,156,41,26,31,305,38,31,04,010,38*4E
$GLGSV,2,1,08,65,34,093,40,72,10,140,34,77,22,355,30,78,53,288,43*6E
$GLGSV,2,2,08,79,26,223,43,81,26,232,38,87,10,127,35,88,34,170,44*6B
$BDGSV,1,1,02,222,20,359,38,229,13,101,43*62
$GPRMC,184407.316,V,,,,,,,171022,,,N*40
$PSAMCLK,2232,15386532,0,9657813,1947095,153865318*41
$PSAMDLOK,88,0x00F,0x000*59
$PSAMDLOK,167,0x3FF,0x000*1C
$PSAMDLOK,78,0x00F,0x000*56
$PSAMDLOK,79,0x00F,0x000*57
$PSAMDLOK,65,0x00F,0x000*5A
$PSAMDLOK,81,0x00F,0x000*50
$PSAMDLOK,87,0x00F,0x000*56
$PSAMDLOK,72,0x00F,0x000*5C
$PSAMID,SLL_3.4.14_KXB24_T18,*06
$GPGGA,184408.310,,,,,0,,,,,,,,*7B
$GPGLL,2200.0000,S,04754.5239,W,184408.310,V,N*42
$GPVTG,324.7,T,,M,11.4,N,21.1,K,N*06
$GPGSV,2,1,07,10,63,293,39,12,30,213,48,15,00,086,44,18,27,106,40*72
$GPGSV,2,2,07,23,45,156,41,26,31,305,38,31,04,010,38*4E
$GLGSV,2,1,08,65,34,093,40,72,10,140,34,77,22,355,30,78,53,288,43*6E
$GLGSV,2,2,08,79,26,224,43,81,26,232,39,87,10,127,35,88,33,170,44*6A
$BDGSV,1,1,04,214,30,138,16,216,20,000,20,222,20,359,38,229,13,101,44*6F
$GPRMC,184408.310,V,,,,,,,171022,,,N*49
$PSAMCLK,2232,15386631,3,9661171,9367335,153866310*48
$GPGGA,184409.305,,,,,0,,,,,,,,*7E
$GPGLL,2159.9988,S,04754.5264,W,184409.305,V,N*40
$GPVTG,314.2,T,,M,12.2,N,22.6,K,N*01
$GPGSV,2,1,07,10,63,293,39,12,30,213,47,15,00,086,44,18,27,106,39*73
$GPGSV,2,2,07,23,45,156,42,26,31,305,38,31,04,010,38*4D
$GLGSV,2,1,08,65,34,093,40,72,10,140,34,77,22,355,30,78,53,288,43*6E
$GLGSV,2,2,08,79,26,224,43,81,26,232,39,87,10,127,35,88,33,170,44*6A
$BDGSV,2,1,05,214,30,138,16,216,20,000,20,222,20,359,39,229,13,101,44*6C
$BDGSV,2,2,05,233,45,304,13*6B
$GPRMC,184409.305,V,,,,,,,171022,,,N*4C
$PSAMCLK,2232,15386731,3,9661161,9428383,153867305*4C
$PSAMDLOK,88,0x00F,0x000*59
$PSAMDLOK,78,0x00F,0x000*56
$PSAMDLOK,79,0x00F,0x000*57
$PSAMDLOK,65,0x00F,0x000*5A
$PSAMDLOK,81,0x00F,0x000*50
$PSAMDLOK,87,0x00F,0x000*56
$PSAMDLOK,72,0x00F,0x000*5C
$PSAMDLOK,77,0x00F,0x000*59
$PSAMID,SLL_3.4.14_KXB24_T18,*06
$GPGGA,184410.000,,,,,0,,,,,,,,*70
$GPGLL,2159.9945,S,04754.5286,W,184410.000,V,N*43
$GPVTG,307.3,T,,M,14.5,N,26.9,K,N*08
$GPGSV,2,1,07,10,63,293,38,12,30,213,47,15,00,086,44,18,27,106,39*72
$GPGSV,2,2,07,23,45,156,42,26,31,305,38,31,04,010,38*4D
$GLGSV,2,1,08,65,34,093,40,72,10,140,34,77,22,355,30,78,53,288,43*6E
$GLGSV,2,2,08,79,26,224,43,81,26,232,39,87,10,127,35,88,33,170,44*6A
$BDGSV,2,1,06,214,30,138,16,216,20,000,20,222,20,359,39,224,04,223,31*65
$BDGSV,2,2,06,229,13,101,44,233,45,304,13*63
$GPRMC,184410.000,V,,,,,,,171022,,,N*42
$PSAMCLK,2232,15386800,3,9661135,9471002,153868000*4F
$GPGGA,184411.000,,,,,0,,,,,,,,*71
$GPGLL,2159.9989,S,04754.5340,W,184411.000,V,N*49
$GPVTG,303.6,T,,M,16.6,N,30.7,K,N*01
$GPGSV,2,1,07,10,63,293,38,12,30,213,46,15,00,086,45,18,27,106,38*73
$GPGSV,2,2,07,23,45,156,42,26,31,305,38,31,04,010,37*42
$GLGSV,2,1,08,65,34,093,40,72,10,140,34,77,22,355,30,78,53,288,43*6E
$GLGSV,2,2,08,79,26,224,43,81,26,232,38,87,10,127,35,88,33,170,44*6B
$BDGSV,2,1,06,214,30,138,15,216,20,000,19,222,20,359,39,224,04,223,31*6C
$BDGSV,2,2,06,229,13,101,44,233,45,304,13*63
$GPRMC,184411.000,V,,,,,,,171022,,,N*43
$PSAMCLK,2232,15386900,3,9661115,9532318,153869000*43
$PSAMDLOK,15,0x3FF,0x000*28
$PSAMDLERR,23,1,0x1FF*27
$PSAMDLERR,26,1,0x2FF*21
$PSAMDLERR,12,3,0x07F*57
$PSAMDLOK,31,0x3FF,0x000*2E
$PSAMDLERR,10,3,0x07F*55
$PSAMDLERR,18,3,0x07F*5D
$PSAMDLOK,78,0x00F,0x000*56
$PSAMDLOK,88,0x00F,0x000*59
$PSAMDLOK,79,0x00F,0x000*57
$PSAMDLOK,65,0x00F,0x000*5A
$PSAMDLOK,81,0x00F,0x000*50
$PSAMDLOK,87,0x00F,0x000*56
$PSAMDLOK,72,0x00F,0x000*5C
$PSAMID,SLL_3.4.14_KXB24_T18,*06
$GPGGA,184412.000,,,,,0,,,,,,,,*72
$GPGLL,2159.9963,S,04754.5393,W,184412.000,V,N*40
$GPVTG,300.4,T,,M,21.0,N,38.8,K,N*05
$GPGSV,2,1,07,10,63,293,37,12,30,213,46,15,00,086,45,18,27,106,37*73
$GPGSV,2,2,07,23,45,156,42,26,31,305,38,31,04,010,37*42
$GLGSV,2,1,08,65,34,093,40,72,09,140,34,77,22,355,29,78,53,288,44*69
$GLGSV,2,2,08,79,26,224,43,81,26,232,38,87,10,127,35,88,33,170,44*6B
$BDGSV,2,1,06,214,30,138,14,216,20,000,19,222,20,359,39,224,04,223,31*6D
$BDGSV,2,2,06,229,13,101,45,233,45,304,13*62
$GPRMC,184412.000,V,,,,,,,171022,,,N*40
$PSAMCLK,2232,15387000,3,9661138,9593641,153870000*4E
$GPGGA,184413.000,,,,,0,,,,,,,,*73
$GPGLL,2159.9963,S,04754.5393,W,184413.000,V,N*41
$GPVTG,0.0,T,,M,0.0,N,0.0,K,N*02
$GPGSV,2,1,07,10,63,293,37,12,30,213,45,15,00,086,45,18,27,106,36*71
$GPGSV,2,2,07,23,45,156,42,26,31,305,38,31,04,010,36*43
$GLGSV,2,1,08,65,34,093,40,72,09,140,35,77,22,355,29,78,53,288,44*68
$GLGSV,2,2,08,79,26,224,42,81,26,232,38,87,10,127,35,88,33,170,43*6D
$BDGSV,2,1,06,214,30,138,12,216,20,000,18,222,20,359,38,224,04,223,30*6A
$BDGSV,2,2,06,229,13,101,45,233,45,304,13*62
$GPRMC,184413.000,V,,,,,,,171022,,,N*41
$PSAMCLK,2232,15387100,0,9660948,9654965,153871010*43
$PSAMDLOK,167,0x3FF,0x000*1C
$PSAMDLOK,78,0x00F,0x000*56
$PSAMDLOK,65,0x00F,0x000*5A
$PSAMDLOK,79,0x00F,0x000*57
$PSAMDLOK,88,0x00F,0x000*59
$PSAMDLOK,81,0x000,0x000*26
$PSAMDLOK,72,0x00F,0x000*5C
$PSAMDLOK,87,0x00F,0x000*56
$PSAMDLOK,160,0x08F,0x3F0*13
$PSAMDLOK,77,0x000,0x00F*59
$PSAMID,SLL_3.4.14_KXB24_T18,*06
$GPGGA,184414.000,,,,,0,,,,,,,,*74
$GPGLL,2159.9963,S,04754.5393,W,184414.000,V,N*46
$GPVTG,0.0,T,,M,0.0,N,0.0,K,N*02
$GPGSV,2,1,07,10,63,293,36,12,30,213,44,15,00,086,45,18,27,106,35*72
$GPGSV,2,2,07,23,45,156,42,26,31,305,38,31,04,010,36*43
$GLGSV,2,1,08,65,34,093,40,72,09,140,35,77,22,355,29,78,53,288,44*68
$GLGSV,2,2,08,79,26,224,42,81,26,232,38,87,10,127,35,88,33,170,43*6D
$BDGSV,2,1,06,214,30,138,11,216,20,000,17,222,20,359,38,224,04,223,29*6E
$BDGSV,2,2,06,229,37,132,45,233,45,304,11*66
$GPRMC,184414.000,V,,,,,,,171022,,,N*46
$PSAMCLK,2232,15387200,0,9660948,9716288,153872010*4C
$GPGGA,184415.000,,,,,0,,,,,,,,*75
$GPGLL,2159.9513,S,04754.5571,W,184415.000,V,N*46
$GPVTG,296.9,T,,M,24.3,N,44.9,K,N*0A
$GPGSV,2,1,07,10,63,293,35,12,30,213,43,15,00,086,44,18,27,106,35*77
$GPGSV,2,2,07,23,45,156,41,26,31,305,38,31,04,010,36*40
$GLGSV,2,1,08,65,34,093,40,72,09,140,35,77,22,355,29,78,53,288,44*68
$GLGSV,2,2,08,79,26,224,42,81,26,232,38,87,10,127,34,88,33,170,42*6D
$BDGSV,2,1,06,214,30,138,09,216,20,000,15,222,20,359,37,224,04,223,28*6B
$BDGSV,2,2,06,229,37,132,45,233,45,304,10*67
$GPRMC,184415.000,V,,,,,,,171022,,,N*47
$PSAMCLK,2232,15387300,4,9661130,9781840,153873000*4F
$PSAMDLOK,78,0x00F,0x000*56
$PSAMDLOK,65,0x00F,0x000*5A
$PSAMDLOK,79,0x000,0x000*21
$PSAMDLOK,81,0x000,0x000*26
$PSAMDLOK,88,0x000,0x000*2F
$PSAMDLOK,77,0x000,0x00F*59
$PSAMDLOK,72,0x000,0x000*2A
$PSAMDLOK,87,0x000,0x00F*56
$PSAMID,SLL_3.4.14_KXB24_T18,*06
$GPGGA,184416.000,2159.9483,S,04754.5620,W,1,04,2.8,838.3,M,-4.3,M,,*43
$GPGLL,2159.9483,S,04754.5620,W,184416.000,A,A*52
$GPVTG,296.5,T,,M,26.1,N,48.3,K,A*0F
$GPGSV,2,1,07,10,63,293,35,12,30,213,43,15,00,086,43,18,27,106,34*71
$GPGSV,2,2,07,23,45,156,41,26,31,305,38,31,04,010,35*43
$GLGSV,2,1,08,65,34,093,40,72,09,140,35,77,22,355,31,78,53,288,44*61
$GLGSV,2,2,08,79,26,224,42,81,26,232,38,87,10,127,34,88,33,170,42*6D
$BDGSV,2,1,07,214,30,138,09,216,20,000,14,222,20,359,37,224,04,223,27*64
$BDGSV,2,2,07,226,17,064,28,229,37,132,45,233,45,304,09*66
$GNGSA,A,3,65,78,87,,,,,,,,,,4.6,2.8,3.6*22
$BDGSA,A,3,229,,,,,,,,,,,,4.6,2.8,3.6*17
$GPRMC,184416.000,A,2159.9483,S,04754.5620,W,26.1,296.5,171022,,,A*5F
$PSAMCLK,2232,15387400,4,9661541,9843199,153874000*41
$GPGGA,184417.000,2159.9454,S,04754.5696,W,1,04,2.8,835.9,M,-4.3,M,,*42
$GPGLL,2159.9454,S,04754.5696,W,184417.000,A,A*54
$GPVTG,297.6,T,,M,26.4,N,49.0,K,A*0A
$GPGSV,2,1,07,10,63,293,34,12,30,213,43,15,00,086,43,18,27,106,34*70
$GPGSV,2,2,07,23,45,156,41,26,31,305,37,31,04,010,34*4D
$GLGSV,2,1,08,65,34,093,40,72,09,140,35,77,22,355,34,78,53,288,44*64
$GLGSV,2,2,08,79,26,224,41,81,26,232,38,87,10,127,33,88,33,170,41*6A
$BDGSV,2,1,07,214,30,138,08,216,20,000,12,222,20,359,37,224,04,223,27*63
$BDGSV,2,2,07,226,17,064,29,229,37,132,45,233,45,304,08*66
$GNGSA,A,3,65,78,87,,,,,,,,,,4.6,2.8,3.6*22
$BDGSA,A,3,229,,,,,,,,,,,,4.6,2.8,3.6*17
$GPRMC,184417.000,A,2159.9454,S,04754.5696,W,26.4,297.6,171022,,,A*5E
$PSAMCLK,2232,15387500,4,9661544,9904518,153875000*4B
$PSAMDLERR,15,2,0x3FC*26
$PSAMDLERR,12,1,0x3DF*25
$PSAMDLOK,23,0x3FF,0x000*2D
$PSAMDLERR,26,2,0x3CF*26
$PSAMDLERR,10,1,0x3FD*27
$PSAMDLOK,31,0x3FF,0x000*2E
$PSAMDLERR,18,1,0x3FD*2F
$PSAMDLOK,78,0x00F,0x000*56
$PSAMDLOK,65,0x00F,0x000*5A
$PSAMDLOK,79,0x00F,0x000*57
$PSAMDLOK,88,0x00F,0x000*59
$PSAMDLOK,81,0x00F,0x000*50
$PSAMDLOK,72,0x00F,0x000*5C
$PSAMDLOK,77,0x00F,0x000*59
$PSAMDLOK,87,0x00F,0x000*56
$GPGGA,184418.000,2159.9419,S,04754.5773,W,1,04,2.8,830.7,M,-4.3,M,,*45
$GPGLL,2159.9419,S,04754.5773,W,184418.000,A,A*58
$GPVTG,298.7,T,,M,25.0,N,46.4,K,A*08
$GPGSV,2,1,07,10,63,293,34,12,30,213,43,15,00,086,43,18,27,106,33*77
$GPGSV,2,2,07,23,45,156,41,26,31,305,37,31,04,010,34*4D
$GLGSV,2,1,08,65,34,093,40,72,09,140,35,77,22,355,34,78,53,288,44*64
$GLGSV,2,2,08,79,26,224,41,81,26,232,38,87,10,127,33,88,33,170,41*6A
$BDGSV,2,1,07,214,30,138,07,216,20,000,11,222,20,359,36,224,04,223,26*6F
$BDGSV,2,2,07,226,17,064,29,229,37,132,45,233,45,304,07*69
$GNGSA,A,3,65,78,87,,,,,,,,,,4.6,2.8,3.6*22
$BDGSA,A,3,229,,,,,,,,,,,,4.6,2.8,3.6*17
$GPRMC,184418.000,A,2159.9419,S,04754.5773,W,25.0,298.7,171022,,,A*5B
$PSAMCLK,2232,15387600,4,9661510,9965829,153876000*42
$GPGGA,184419.000,2159.9387,S,04754.5841,W,1,04,2.8,833.0,M,-4.3,M,,*4E
$GPGLL,2159.9387,S,04754.5841,W,184419.000,A,A*57
$GPVTG,297.8,T,,M,24.6,N,45.5,K,A*0D
$GPGSV,2,1,07,10,63,293,33,12,30,213,42,15,00,086,43,18,27,106,33*71
$GPGSV,2,2,07,23,45,156,41,26,31,305,37,31,04,010,33*4A
$GLGSV,2,1,08,65,34,093,40,72,09,140,35,77,22,355,34,78,53,288,44*64
$GLGSV,2,2,08,79,26,224,41,81,26,232,38,87,10,127,33,88,33,170,41*6A
$BDGSV,2,1,05,216,20,000,09,222,20,359,36,224,04,223,25,226,17,064,29*67
$BDGSV,2,2,05,229,37,132,45*61
$GNGSA,A,3,65,78,87,,,,,,,,,,4.6,2.8,3.6*22
$BDGSA,A,3,229,,,,,,,,,,,,4.6,2.8,3.6*17
$GPRMC,184419.000,A,2159.9387,S,04754.5841,W,24.6,297.8,171022,,,A*53
$PSAMCLK,2232,15387700,4,9661535,10027157,153877000*72
$PSAMDLOK,167,0x3FF,0x000*1C
$PSAMDLOK,78,0x00F,0x000*56
$PSAMDLOK,65,0x00F,0x000*5A
$PSAMDLOK,79,0x00F,0x000*57
$PSAMDLOK,88,0x00F,0x000*59
$PSAMDLOK,160,0x2EF,0x3F7*6B
$PSAMDLOK,72,0x00F,0x000*5C
$PSAMDLOK,77,0x00F,0x000*59
$PSAMDLOK,81,0x00F,0x000*50
$PSAMDLOK,87,0x000,0x000*20
$GPGGA,184420.000,2159.9355,S,04754.5914,W,1,04,2.8,833.2,M,-4.3,M,,*48
$GPGLL,2159.9355,S,04754.5914,W,184420.000,A,A*53
$GPVTG,297.4,T,,M,25.5,N,47.3,K,A*07
$GPGSV,2,1,07,10,63,293,33,12,30,213,42,15,00,086,43,18,27,106,32*70
$GPGSV,2,2,07,23,45,156,41,26,31,305,37,31,04,010,33*4A
$GLGSV,2,1,08,65,34,093,40,72,09,140,35,77,22,355,34,78,53,288,44*64
$GLGSV,2,2,08,79,26,224,41,81,26,232,37,87,10,127,33,88,33,170,40*64
$BDGSV,2,1,05,216,20,000,08,222,20,359,36,224,04,223,25,226,17,064,29*66
$BDGSV,2,2,05,229,37,132,45*61
$GNGSA,A,3,65,78,87,,,,,,,,,,4.6,2.8,3.6*22
$BDGSA,A,3,229,,,,,,,,,,,,4.6,2.8,3.6*17
$GPRMC,184420.000,A,2159.9355,S,04754.5914,W,25.5,297.4,171022,,,A*59
$PSAMCLK,2232,15387800,4,9661504,10088482,153878000*78
$GPGGA,184421.000,2159.9321,S,04754.5983,W,1,04,2.8,834.2,M,-4.3,M,,*43
$GPGLL,2159.9321,S,04754.5983,W,184421.000,A,A*5F
$GPVTG,296.7,T,,M,26.7,N,49.4,K,A*0D
$GPGSV,2,1,07,10,63,293,33,12,30,213,41,15,00,086,44,18,27,106,32*74
$GPGSV,2,2,07,23,45,156,41,26,31,305,36,31,04,010,36*4E
$GLGSV,2,1,08,65,34,093,40,72,09,140,36,77,22,355,34,78,53,288,44*67
$GLGSV,2,2,08,79,26,224,39,81,26,232,37,87,10,127,32,88,33,170,40*6A
$BDGSV,2,1,05,216,20,000,08,222,20,359,36,224,04,223,24,226,17,064,29*67
$BDGSV,2,2,05,229,37,132,45*61
$GNGSA,A,3,65,78,87,,,,,,,,,,4.6,2.8,3.6*22
$BDGSA,A,3,229,,,,,,,,,,,,4.6,2.8,3.6*17
$GPRMC,184421.000,A,2159.9321,S,04754.5983,W,26.7,296.7,171022,,,A*56
$PSAMCLK,2232,15387900,4,9661531,10149810,153879000*75
$PSAMDLOK,78,0x00F,0x000*56
$PSAMDLOK,65,0x00F,0x000*5A
$PSAMDLOK,79,0x000,0x00F*57
$PSAMDLOK,81,0x000,0x00F*50
$PSAMDLOK,88,0x000,0x000*2F
$PSAMDLOK,87,0x000,0x000*20
$PSAMDLOK,72,0x000,0x00F*5C
$PSAMDLOK,77,0x000,0x00F*59
$GPGGA,184422.000,2159.9287,S,04754.6053,W,1,04,2.8,837.1,M,-4.3,M,,*4A
$GPGLL,2159.9287,S,04754.6053,W,184422.000,A,A*56
$GPVTG,297.7,T,,M,27.6,N,51.2,K,A*03
$GPGSV,2,1,07,10,63,293,33,12,30,213,41,15,00,086,43,18,27,106,36*77
$GPGSV,2,2,07,23,45,156,41,26,31,305,35,31,04,010,36*4D
$GLGSV,2,1,08,65,34,093,40,72,09,140,35,77,22,355,33,78,53,288,44*63
$GLGSV,2,2,08,79,26,224,39,81,26,232,37,87,10,127,32,88,33,170,40*6A
$BDGSV,2,1,05,216,20,000,07,222,20,359,36,224,04,223,24,226,17,064,29*68
$BDGSV,2,2,05,229,37,132,45*61
$GNGSA,A,3,65,78,87,,,,,,,,,,4.6,2.8,3.6*22
$BDGSA,A,3,229,,,,,,,,,,,,4.6,2.8,3.6*17
$GPRMC,184422.000,A,2159.9287,S,04754.6053,W,27.6,297.7,171022,,,A*5E
$PSAMCLK,2232,15388000,4,9661582,10211142,153880000*7D
$GPGGA,184423.000,2159.9251,S,04754.6126,W,1,04,2.8,839.8,M,-4.3,M,,*44
$GPGLL,2159.9251,S,04754.6126,W,184423.000,A,A*5F
$GPVTG,299.2,T,,M,28.5,N,52.7,K,A*02
$GPGSV,2,1,07,10,63,293,32,12,30,213,41,15,00,086,42,18,27,106,36*77
$GPGSV,2,2,07,23,45,156,41,26,31,305,35,31,04,010,36*4D
$GLGSV,2,1,08,65,34,093,40,72,09,140,35,77,22,355,32,78,53,288,44*62
$GLGSV,2,2,08,79,26,224,39,81,26,232,37,87,10,127,32,88,33,170,40*6A
$BDGSV,1,1,04,222,20,359,36,224,04,223,23,226,17,064,28,229,37,132,45*60
$GNGSA,A,3,65,78,87,,,,,,,,,,4.6,2.8,3.6*22
$BDGSA,A,3,229,,,,,,,,,,,,4.6,2.8,3.6*17
$GPRMC,184423.000,A,2159.9251,S,04754.6126,W,28.5,299.2,171022,,,A*50
$PSAMCLK,2232,15388100,4,9661699,10272472,153881000*77
$PSAMDLOK,15,0x3FF,0x000*28
$PSAMDLOK,23,0x3FF,0x000*2D
$PSAMDLERR,12,2,0x3DE*25
$PSAMDLOK,26,0x3E7,0x010*5B
$PSAMDLOK,18,0x3FF,0x000*25
$PSAMDLERR,31,1,0x3BF*22
$PSAMDLOK,10,0x0D1,0x200*59
$PSAMDLOK,78,0x00F,0x000*56
$PSAMDLOK,65,0x00F,0x000*5A
$PSAMDLOK,88,0x000,0x000*2F
$PSAMDLOK,79,0x000,0x000*21
$PSAMDLOK,81,0x00F,0x000*50
$PSAMDLOK,87,0x00F,0x000*56
$PSAMDLOK,72,0x000,0x000*2A
$PSAMDLOK,77,0x000,0x00F*59
$GPGGA,184424.000,2159.9215,S,04754.6204,W,1,04,2.8,841.7,M,-4.3,M,,*40
$GPGLL,2159.9215,S,04754.6204,W,184424.000,A,A*5B
$GPVTG,299.5,T,,M,29.3,N,54.2,K,A*01
$GPGSV,2,1,07,10,63,293,32,12,30,213,41,15,00,086,42,18,27,106,35*74
$GPGSV,2,2,07,23,45,156,41,26,31,305,36,31,04,010,36*4E
$GLGSV,2,1,08,65,34,093,40,72,09,140,34,77,22,355,32,78,53,288,44*63
$GLGSV,2,2,08,79,26,224,39,81,26,232,36,87,10,127,32,88,33,170,39*65
$BDGSV,1,1,04,222,20,359,36,224,04,223,24,226,17,064,27,229,37,132,45*68
$GNGSA,A,3,65,78,87,,,,,,,,,,4.6,2.8,3.6*22
$BDGSA,A,3,229,,,,,,,,,,,,4.6,2.8,3.6*17
$GPRMC,184424.000,A,2159.9215,S,04754.6204,W,29.3,299.5,171022,,,A*54
$PSAMCLK,2232,15388200,4,9661764,10333801,153882000*78
$GPGGA,184425.000,2159.9183,S,04754.6288,W,1,04,2.8,839.8,M,-4.3,M,,*49
$GPGLL,2159.9183,S,04754.6288,W,184425.000,A,A*52
$GPVTG,298.2,T,,M,29.9,N,55.4,K,A*0A
$GPGSV,2,1,07,10,63,293,31,12,30,213,40,15,00,086,42,18,27,106,35*76
$GPGSV,2,2,07,23,45,156,41,26,31,305,37,31,04,010,35*4C
$GLGSV,2,1,08,65,34,093,40,72,09,140,34,77,22,355,31,78,53,288,44*60
$GLGSV,2,2,08,79,26,224,39,81,26,232,36,87,10,127,32,88,33,170,39*65
$BDGSV,1,1,04,222,20,359,35,224,04,223,27,226,17,064,27,229,37,132,45*68
$GNGSA,A,3,65,78,87,,,,,,,,,,4.6,2.8,3.6*22
$BDGSA,A,3,229,,,,,,,,,,,,4.6,2.8,3.6*17
$GPRMC,184425.000,A,2159.9183,S,04754.6288,W,29.9,298.2,171022,,,A*51
$PSAMCLK,2232,15388300,4,9661677,10395121,153883000*7C
$PSAMDLOK,167,0x3FF,0x000*1C
$PSAMDLOK,78,0x00F,0x000*56
$PSAMDLOK,65,0x00F,0x000*5A
$PSAMDLOK,88,0x00F,0x000*59
$PSAMDLOK,81,0x000,0x000*26
$PSAMDLOK,160,0x310,0x3CE*1F
$PSAMDLOK,72,0x000,0x000*2A
$PSAMDLOK,77,0x000,0x00F*59
$PSAMDLOK,87,0x000,0x000*20
$PSAMDLOK,79,0x000,0x000*21
$GPGGA,184426.000,2159.9139,S,04754.6357,W,1,04,2.8,838.8,M,-4.3,M,,*49
$GPGLL,2159.9139,S,04754.6357,W,184426.000,A,A*53
$GPVTG,298.3,T,,M,30.0,N,55.6,K,A*08
$GPGSV,2,1,07,10,63,293,31,12,30,213,40,15,00,086,42,18,27,106,35*76
$GPGSV,2,2,07,23,45,156,41,26,31,305,37,31,04,010,35*4C
$GLGSV,2,1,08,65,34,093,40,72,09,140,33,77,22,355,31,78,53,288,44*67
$GLGSV,2,2,08,79,26,224,38,81,26,232,36,87,10,127,32,88,33,170,39*64
$BDGSV,1,1,04,222,20,359,35,224,04,223,27,226,17,064,26,229,37,132,45*69
$GNGSA,A,3,65,78,87,,,,,,,,,,4.6,2.8,3.6*22
$BDGSA,A,3,229,,,,,,,,,,,,4.6,2.8,3.6*17
$GPRMC,184426.000,A,2159.9139,S,04754.6357,W,30.0,298.3,171022,,,A*50
$PSAMCLK,2232,15388400,4,9661584,10456442,153884000*7B
$GPGGA,184427.000,2159.9103,S,04754.6436,W,1,04,2.8,840.8,M,-4.3,M,,*4E
$GPGLL,2159.9103,S,04754.6436,W,184427.000,A,A*5B
$GPVTG,298.0,T,,M,29.4,N,54.5,K,A*05
$GPGSV,2,1,07,10,63,293,31,12,30,213,40,15,00,086,42,18,27,106,35*76
$GPGSV,2,2,07,23,45,156,41,26,31,305,37,31,04,010,34*4D
$GLGSV,2,1,08,65,34,093,40,72,09,140,34,77,22,355,31,78,53,288,44*60
$GLGSV,2,2,08,79,26,224,37,81,26,232,36,87,10,127,31,88,33,170,39*68
$BDGSV,1,1,04,222,20,359,35,224,04,223,27,226,17,064,25,229,37,132,45*6A
$GNGSA,A,3,65,78,87,,,,,,,,,,4.6,2.8,3.6*22
$BDGSA,A,3,229,,,,,,,,,,,,4.6,2.8,3.6*17
$GPRMC,184427.000,A,2159.9103,S,04754.6436,W,29.4,298.0,171022,,,A*57
$PSAMCLK,2232,15388500,4,9661576,10517772,153885000*72
$PSAMDLOK,78,0x00F,0x000*56
$PSAMDLOK,65,0x00F,0x000*5A
$PSAMDLOK,88,0x00F,0x000*59
$PSAMDLOK,81,0x00F,0x000*50
$PSAMDLOK,72,0x00F,0x000*5C
$PSAMDLOK,77,0x000,0x000*2F
$PSAMDLOK,87,0x000,0x000*20
$PSAMDLOK,79,0x000,0x000*21
$GPGGA,184428.000,2159.9067,S,04754.6510,W,1,04,2.8,843.3,M,-4.3,M,,*4F
$GPGLL,2159.9067,S,04754.6510,W,184428.000,A,A*52
$GPVTG,298.2,T,,M,28.8,N,53.4,K,A*0C
$GPGSV,2,1,07,10,63,293,30,12,30,213,40,15,00,086,42,18,27,106,35*77
$GPGSV,2,2,07,23,45,156,41,26,31,305,37,31,04,010,34*4D
$GLGSV,2,1,08,65,34,093,40,72,09,140,34,77,22,355,31,78,53,288,44*60
$GLGSV,2,2,08,79,26,224,36,81,26,232,36,87,10,127,31,88,33,170,39*69
$BDGSV,1,1,04,222,20,359,35,224,04,223,26,226,17,064,24,229,37,132,45*6A
$GNGSA,A,3,65,78,87,,,,,,,,,,4.6,2.8,3.6*22
$BDGSA,A,3,229,,,,,,,,,,,,4.6,2.8,3.6*17
$GPRMC,184428.000,A,2159.9067,S,04754.6510,W,28.8,298.2,171022,,,A*51
$PSAMCLK,2232,15388600,4,9661633,10579101,153886000*7A
$GPGGA,184429.000,2159.9031,S,04754.6587,W,1,04,2.8,845.6,M,-4.3,M,,*40
$GPGLL,2159.9031,S,04754.6587,W,184429.000,A,A*5E
$GPVTG,297.7,T,,M,28.3,N,52.3,K,A*0B
$GPGSV,2,1,08,10,63,293,30,12,30,213,39,15,00,086,42,18,27,106,35*76
$GPGSV,2,2,08,22,78,146,20,23,45,156,41,26,31,305,36,31,04,010,33*7A
$GLGSV,2,1,08,65,34,093,40,72,09,140,34,77,22,355,31,78,53,288,44*60
$GLGSV,2,2,08,79,26,224,36,81,26,232,35,87,10,127,31,88,33,170,39*6A
$BDGSV,1,1,04,222,20,359,35,224,04,223,25,226,17,064,23,229,37,132,45*6E
$GNGSA,A,3,65,78,87,,,,,,,,,,4.6,2.8,3.6*22
$BDGSA,A,3,229,,,,,,,,,,,,4.6,2.8,3.6*17
$GPRMC,184429.000,A,2159.9031,S,04754.6587,W,28.3,297.7,171022,,,A*5C
$PSAMCLK,2232,15388700,4,9661660,10640430,153887000*72
$PSAMDLOK,15,0x3FF,0x000*28
$PSAMDLOK,23,0x3FF,0x000*2D
$PSAMDLERR,12,2,0x1FD*24
$PSAMDLERR,26,1,0x2FF*21
$PSAMDLOK,18,0x3FF,0x000*25
$PSAMDLERR,31,1,0x3FD*24
$PSAMDLOK,10,0x13D,0x202*58
$PSAMDLOK,78,0x00F,0x000*56
$PSAMDLOK,65,0x00F,0x000*5A
$PSAMDLOK,88,0x00F,0x000*59
$PSAMDLOK,79,0x000,0x000*21
$PSAMDLOK,72,0x00F,0x000*5C
$PSAMDLOK,81,0x000,0x00F*50
$PSAMDLOK,87,0x000,0x000*20
$PSAMDLOK,77,0x000,0x00F*59
$GPGGA,184430.000,2159.9007,S,04754.6666,W,1,06,1.6,849.4,M,-4.3,M,,*40
$GPGLL,2159.9007,S,04754.6666,W,184430.000,A,A*5F
$GPVTG,298.2,T,,M,27.6,N,51.2,K,A*09
$GPGSV,2,1,08,10,63,293,30,12,30,213,39,15,00,086,42,18,57,223,35*75
$GPGSV,2,2,08,22,78,146,20,23,47,350,40,26,31,305,36,31,04,010,33*7D
$GLGSV,2,1,08,65,34,093,40,72,09,140,34,77,22,355,30,78,53,288,44*61
$GLGSV,2,2,08,79,26,224,36,81,26,232,35,87,10,127,31,88,33,170,39*6A
$BDGSV,1,1,04,222,20,359,35,224,04,223,26,226,17,064,23,229,37,132,45*6D
$GPGSA,A,3,18,23,,,,,,,,,,,3.4,1.6,3.0*39
$GNGSA,A,3,65,78,87,,,,,,,,,,3.4,1.6,3.0*2C
$BDGSA,A,3,229,,,,,,,,,,,,3.4,1.6,3.0*19
$GPRMC,184430.000,A,2159.9007,S,04754.6666,W,27.6,298.2,171022,,,A*5D
$PSAMCLK,2232,15388800,6,9661666,0,153888000*42
$GPGGA,184431.000,2159.8983,S,04754.6743,W,1,06,1.6,849.9,M,-4.3,M,,*4E
$GPGLL,2159.8983,S,04754.6743,W,184431.000,A,A*5C
$GPVTG,298.3,T,,M,28.0,N,51.9,K,A*0A
$GPGSV,2,1,08,10,63,293,29,12,30,213,39,15,00,086,42,18,57,223,35*7D
$GPGSV,2,2,08,22,78,146,20,23,47,350,40,26,31,305,36,31,04,010,33*7D
$GLGSV,2,1,08,65,34,093,40,72,09,140,34,77,22,355,30,78,53,288,44*61
$GLGSV,2,2,08,79,26,224,36,81,26,232,35,87,10,127,31,88,33,170,38*6B
$BDGSV,1,1,04,222,20,359,35,224,04,223,33,226,17,064,22,229,37,132,45*68
$GPGSA,A,3,18,23,,,,,,,,,,,3.4,1.6,3.0*39
$GNGSA,A,3,65,78,87,,,,,,,,,,3.4,1.6,3.0*2C
$BDGSA,A,3,229,,,,,,,,,,,,3.4,1.6,3.0*19
$GPRMC,184431.000,A,2159.8983,S,04754.6743,W,28.0,298.3,171022,,,A*56
$PSAMCLK,2232,15388900,6,9661604,61319,153889000*4A
$PSAMDLOK,78,0x00F,0x000*56
$PSAMDLOK,167,0x3FF,0x000*1C
$PSAMDLOK,65,0x00F,0x000*5A
$PSAMDLOK,88,0x00F,0x000*59
$PSAMDLOK,160,0x3A3,0x1F8*16
$PSAMDLOK,79,0x000,0x000*21
$PSAMDLOK,81,0x000,0x000*26
$PSAMDLOK,87,0x000,0x000*20
$PSAMDLOK,72,0x000,0x000*2A
$PSAMDLOK,77,0x00F,0x00F*2F
$GPGGA,184432.000,2159.8952,S,04754.6827,W,1,07,1.4,847.9,M,-4.3,M,,*41
$GPGLL,2159.8952,S,04754.6827,W,184432.000,A,A*5E
$GPVTG,298.0,T,,M,28.5,N,52.8,K,A*0E
$GPGSV,2,1,08,10,63,293,29,12,30,213,43,15,00,086,42,18,57,223,34*71
$GPGSV,2,2,08,22,78,146,20,23,47,350,40,26,31,305,36,31,04,010,32*7C
$GLGSV,2,1,08,65,34,093,40,72,09,140,34,77,22,355,30,78,53,288,44*61
$GLGSV,2,2,08,79,26,224,35,81,26,232,34,87,10,127,31,88,33,170,38*69
$BDGSV,1,1,04,222,20,359,36,224,04,223,32,226,17,064,21,229,37,132,45*69
$GPGSA,A,3,18,23,,,,,,,,,,,3.4,1.4,3.0*3B
$GNGSA,A,3,65,78,87,88,,,,,,,,,3.4,1.4,3.0*2E
$BDGSA,A,3,229,,,,,,,,,,,,3.4,1.4,3.0*1B
$GPRMC,184432.000,A,2159.8952,S,04754.6827,W,28.5,298.0,171022,,,A*52
$PSAMCLK,2232,15389000,7,9661430,122642,153890000*73
$GPGGA,184433.000,2159.8917,S,04754.6905,W,1,07,1.4,850.2,M,-4.3,M,,*4D
$GPGLL,2159.8917,S,04754.6905,W,184433.000,A,A*5F
$GPVTG,297.2,T,,M,28.6,N,52.9,K,A*01
$GPGSV,2,1,08,10,63,293,30,12,30,213,43,15,00,086,42,18,57,223,34*79
$GPGSV,2,2,08,22,78,146,20,23,47,350,40,26,31,305,35,31,04,010,32*7F
$GLGSV,2,1,08,65,34,093,40,72,09,140,33,77,22,355,30,78,53,288,44*66
$GLGSV,2,2,08,79,26,224,35,81,26,232,34,87,10,127,31,88,33,170,38*69
$BDGSV,1,1,04,222,20,359,36,224,04,223,32,226,17,064,21,229,37,132,45*69
$GPGSA,A,3,18,23,,,,,,,,,,,3.4,1.4,3.0*3B
$GNGSA,A,3,65,78,87,88,,,,,,,,,3.4,1.4,3.0*2E
$BDGSA,A,3,229,,,,,,,,,,,,3.4,1.4,3.0*1B
$GPRMC,184433.000,A,2159.8917,S,04754.6905,W,28.6,297.2,171022,,,A*5D
$PSAMCLK,2232,15389100,7,9661503,183971,153891000*76
$PSAMDLOK,78,0x00F,0x000*56
$PSAMDLOK,65,0x00F,0x000*5A
$PSAMDLOK,88,0x00F,0x000*59
$PSAMDLOK,81,0x000,0x000*26
$PSAMDLOK,87,0x00F,0x000*56
$PSAMDLOK,77,0x00F,0x000*59
$PSAMDLOK,79,0x000,0x00F*57
$PSAMDLOK,72,0x000,0x00F*5C
$GPGGA,184434.000,2159.8887,S,04754.6988,W,1,07,1.4,848.3,M,-4.3,M,,*4F
$GPGLL,2159.8887,S,04754.6988,W,184434.000,A,A*55
$GPVTG,297.7,T,,M,27.9,N,51.6,K,A*08
$GPGSV,2,1,08,10,63,293,30,12,30,213,43,15,00,086,42,18,57,223,34*79
$GPGSV,2,2,08,22,78,146,20,23,47,350,40,26,31,305,35,31,04,010,32*7F
$GLGSV,2,1,08,65,34,093,40,72,09,140,32,77,22,355,30,78,53,288,44*67
$GLGSV,2,2,08,79,26,224,34,81,26,232,34,87,10,127,31,88,33,170,38*68
$BDGSV,1,1,04,222,20,359,36,224,04,223,31,226,17,064,20,229,37,132,45*6B
$GPGSA,A,3,18,23,,,,,,,,,,,3.4,1.4,3.0*3B
$GNGSA,A,3,65,78,87,88,,,,,,,,,3.4,1.4,3.0*2E
$BDGSA,A,3,229,,,,,,,,,,,,3.4,1.4,3.0*1B
$GPRMC,184434.000,A,2159.8887,S,04754.6988,W,27.9,297.7,171022,,,A*52
$PSAMCLK,2232,15389200,7,9661396,245290,153892000*71
$GPGGA,184435.000,2159.8854,S,04754.7060,W,1,07,1.4,849.5,M,-4.3,M,,*49
$GPGLL,2159.8854,S,04754.7060,W,184435.000,A,A*54
$GPVTG,297.5,T,,M,25.6,N,47.4,K,A*02
$GPGSV,2,1,08,10,63,293,30,12,30,213,43,15,00,086,42,18,57,223,34*79
$GPGSV,2,2,08,22,78,146,20,23,47,350,40,26,31,305,35,31,04,010,32*7F
$GLGSV,2,1,08,65,34,093,40,72,09,140,32,77,22,355,30,78,53,288,44*67
$GLGSV,2,2,08,79,26,224,34,81,26,232,34,87,10,127,30,88,33,170,38*69
$BDGSV,1,1,04,222,20,359,37,224,04,223,31,226,17,064,20,229,37,132,45*6A
$GPGSA,A,3,18,23,,,,,,,,,,,3.4,1.4,3.0*3B
$GNGSA,A,3,65,78,87,88,,,,,,,,,3.4,1.4,3.0*2E
$BDGSA,A,3,229,,,,,,,,,,,,3.4,1.4,3.0*1B
$GPRMC,184435.000,A,2159.8854,S,04754.7060,W,25.6,297.5,171022,,,A*5C
$PSAMCLK,2232,15389300,7,9661405,306618,153893000*7E
$PSAMDLERR,12,1,0x3DF*25
$PSAMDLOK,15,0x3FF,0x000*28
$PSAMDLOK,23,0x3FF,0x000*2D
$PSAMDLOK,18,0x3FF,0x000*25
$PSAMDLERR,26,6,0x1B0*57
$PSAMDLERR,31,5,0x3C1*50
$PSAMDLOK,10,0x158,0x001*23
$PSAMDLOK,78,0x00F,0x000*56
$PSAMDLOK,65,0x00F,0x000*5A
$PSAMDLOK,88,0x00F,0x000*59
$PSAMDLOK,81,0x000,0x000*26
$PSAMDLOK,79,0x000,0x000*21
$PSAMDLOK,77,0x00F,0x000*59
$PSAMDLOK,72,0x00F,0x000*5C
$PSAMDLOK,87,0x000,0x000*20
$GPGGA,184436.000,2159.8826,S,04754.7128,W,1,07,1.4,847.6,M,-4.3,M,,*4F
$GPGLL,2159.8826,S,04754.7128,W,184436.000,A,A*5F
$GPVTG,297.4,T,,M,23.0,N,42.7,K,A*05
$GPGSV,2,1,08,10,63,293,30,12,30,213,43,15,00,086,42,18,57,223,34*79
$GPGSV,2,2,08,22,78,146,20,23,47,350,40,26,31,305,35,31,04,010,31*7C
$GLGSV,2,1,08,65,34,093,40,72,09,140,32,77,22,355,30,78,53,288,44*67
$GLGSV,2,2,08,79,26,224,34,81,26,232,33,87,10,127,30,88,33,170,38*6E
$BDGSV,1,1,04,222,20,359,37,224,04,223,31,226,17,064,19,229,37,132,45*60
$GPGSA,A,3,18,23,,,,,,,,,,,3.4,1.4,3.0*3B
$GNGSA,A,3,65,78,87,88,,,,,,,,,3.4,1.4,3.0*2E
$BDGSA,A,3,229,,,,,,,,,,,,3.4,1.4,3.0*1B
$GPRMC,184436.000,A,2159.8826,S,04754.7128,W,23.0,297.4,171022,,,A*56
$PSAMCLK,2232,15389400,7,9661324,367938,153894000*70
$GPGGA,184437.000,2159.8799,S,04754.7182,W,1,07,1.4,849.2,M,-4.3,M,,*4F
$GPGLL,2159.8799,S,04754.7182,W,184437.000,A,A*55
$GPVTG,297.8,T,,M,19.4,N,35.9,K,A*0A
$GPGSV,3,1,09,10,63,293,30,12,30,213,43,15,00,086,42,18,57,223,34*79
$GPGSV,3,2,09,22,78,146,20,23,47,350,40,26,31,305,35,27,40,341,20*7C
$GPGSV,3,3,09,31,04,010,34*40
$GLGSV,2,1,08,65,34,093,40,72,09,140,32,77,22,355,30,78,53,288,44*67
$GLGSV,2,2,08,79,26,224,33,81,26,232,33,87,10,127,30,88,33,170,38*69
$BDGSV,1,1,04,222,20,359,37,224,04,223,30,226,17,064,18,229,37,132,45*60
$GPGSA,A,3,18,23,,,,,,,,,,,3.4,1.4,3.0*3B
$GNGSA,A,3,65,78,87,88,,,,,,,,,3.4,1.4,3.0*2E
$BDGSA,A,3,229,,,,,,,,,,,,3.4,1.4,3.0*1B
$GPRMC,184437.000,A,2159.8799,S,04754.7182,W,19.4,297.8,171022,,,A*5D
$PSAMCLK,2232,15389500,7,9661368,429266,153895000*75
$PSAMDLOK,78,0x00F,0x000*56
$PSAMDLOK,167,0x3FF,0x000*1C
$PSAMDLOK,65,0x00F,0x000*5A
$PSAMDLOK,88,0x00F,0x000*59
$PSAMDLOK,160,0x3F7,0x000*6A
$PSAMDLOK,81,0x00F,0x000*50
$PSAMDLOK,79,0x000,0x000*21
$PSAMDLOK,77,0x00F,0x000*59
$PSAMDLOK,87,0x000,0x000*20
$PSAMDLOK,72,0x000,0x000*2A
$GPGGA,184438.000,2159.8777,S,04754.7223,W,1,07,1.4,851.3,M,-4.3,M,,*40
$GPGLL,2159.8777,S,04754.7223,W,184438.000,A,A*52
$GPVTG,298.2,T,,M,14.5,N,26.8,K,A*00
$GPGSV,3,1,09,10,63,293,30,12,30,213,43,15,00,086,42,18,57,223,34*79
$GPGSV,3,2,09,22,78,146,20,23,47,350,40,26,31,305,34,27,40,341,19*77
$GPGSV,3,3,09,31,04,010,34*40
$GLGSV,2,1,08,65,34,093,40,72,09,140,31,77,22,355,30,78,53,288,44*64
$GLGSV,2,2,08,79,26,224,33,81,26,232,33,87,10,127,30,88,33,170,38*69
$BDGSV,1,1,04,222,20,359,37,224,04,223,30,226,17,064,18,229,37,132,44*61
$GPGSA,A,3,18,23,,,,,,,,,,,3.4,1.4,3.0*3B
$GNGSA,A,3,65,78,87,88,,,,,,,,,3.4,1.4,3.0*2E
$BDGSA,A,3,229,,,,,,,,,,,,3.4,1.4,3.0*1B
$GPRMC,184438.000,A,2159.8777,S,04754.7223,W,14.5,298.2,171022,,,A*53
$PSAMCLK,2232,15389600,7,9661344,490596,153896000*71
$GPGGA,184439.000,2159.8764,S,04754.7258,W,1,07,1.4,850.4,M,-4.3,M,,*49
$GPGLL,2159.8764,S,04754.7258,W,184439.000,A,A*5D
$GPVTG,297.9,T,,M,10.3,N,19.0,K,A*02
$GPGSV,3,1,09,10,63,293,29,12,30,213,43,15,00,086,42,18,57,223,34*71
$GPGSV,3,2,09,22,78,146,20,23,47,350,41,26,31,305,34,27,40,341,17*78
$GPGSV,3,3,09,31,04,010,33*47
$GLGSV,2,1,08,65,34,093,40,72,09,140,31,77,22,355,30,78,53,288,44*64
$GLGSV,2,2,08,79,26,224,33,81,26,232,33,87,10,127,30,88,33,170,38*69
$BDGSV,1,1,04,222,20,359,37,224,04,223,30,226,17,064,17,229,37,132,44*6E
$GPGSA,A,3,18,23,,,,,,,,,,,3.4,1.4,3.0*3B
$GNGSA,A,3,65,78,87,88,,,,,,,,,3.4,1.4,3.0*2E
$BDGSA,A,3,229,,,,,,,,,,,,3.4,1.4,3.0*1B
$GPRMC,184439.000,A,2159.8764,S,04754.7258,W,10.3,297.9,171022,,,A*5A
$PSAMCLK,2232,15389700,7,9661310,551919,153897000*77
$PSAMDLOK,78,0x00F,0x000*56
$PSAMDLOK,79,0x000,0x000*21
$PSAMDLOK,65,0x00F,0x000*5A
$PSAMDLOK,88,0x00F,0x000*59
$PSAMDLOK,81,0x00F,0x000*50
$PSAMDLOK,72,0x000,0x00F*5C
$PSAMDLOK,77,0x00F,0x000*59
$PSAMDLOK,87,0x000,0x00F*56
$GPGGA,184440.000,2159.8751,S,04754.7282,W,1,07,1.4,851.6,M,-4.3,M,,*45
$GPGLL,2159.8751,S,04754.7282,W,184440.000,A,A*52
$GPVTG,296.6,T,,M,9.8,N,18.2,K,A*3C
$GPGSV,3,1,09,10,63,293,29,12,30,213,43,15,00,086,42,18,57,223,34*71
$GPGSV,3,2,09,22,78,146,20,23,47,350,41,26,31,305,34,27,40,341,16*79
$GPGSV,3,3,09,31,04,010,33*47
$GLGSV,2,1,08,65,34,093,40,72,09,140,31,77,22,355,30,78,53,288,44*64
$GLGSV,2,2,08,79,26,224,33,81,26,232,33,87,10,127,30,88,33,170,38*69
$BDGSV,1,1,04,222,20,359,36,224,04,223,31,226,17,064,17,229,37,132,44*6E
$GPGSA,A,3,18,23,,,,,,,,,,,3.4,1.4,3.0*3B
$GNGSA,A,3,65,78,87,88,,,,,,,,,3.4,1.4,3.0*2E
$BDGSA,A,3,229,,,,,,,,,,,,3.4,1.4,3.0*1B
$GPRMC,184440.000,A,2159.8751,S,04754.7282,W,9.8,296.6,171022,,,A*68
$PSAMCLK,2232,15389800,7,9661361,613246,153898000*75
$GPGGA,184441.000,2159.8738,S,04754.7313,W,1,07,1.4,852.3,M,-4.3,M,,*44
$GPGLL,2159.8738,S,04754.7313,W,184441.000,A,A*55
$GPVTG,296.5,T,,M,11.3,N,21.0,K,A*05
$GPGSV,3,1,09,10,63,293,28,12,30,213,43,15,00,086,42,18,57,223,34*70
$GPGSV,3,2,09,22,78,146,20,23,47,350,41,26,31,305,38,27,40,341,14*77
$GPGSV,3,3,09,31,04,010,33*47
$GLGSV,2,1,08,65,34,093,40,72,09,140,32,77,22,355,29,78,53,288,44*6F
$GLGSV,2,2,08,79,26,224,36,81,26,232,33,87,10,127,29,88,33,170,38*64
$BDGSV,1,1,04,222,20,359,36,224,04,223,32,226,17,064,17,229,37,132,44*6D
$GPGSA,A,3,18,23,,,,,,,,,,,3.4,1.4,3.0*3B
$GNGSA,A,3,65,78,87,88,,,,,,,,,3.4,1.4,3.0*2E
$BDGSA,A,3,229,,,,,,,,,,,,3.4,1.4,3.0*1B
$GPRMC,184441.000,A,2159.8738,S,04754.7313,W,11.3,296.5,171022,,,A*5E
$PSAMCLK,2232,15389900,7,9661346,674572,153899000*71
$PSAMDLOK,15,0x3FF,0x000*28
$PSAMDLOK,23,0x3FF,0x000*2D
$PSAMDLERR,26,4,0x03F*53
$PSAMDLOK,18,0x3FF,0x000*25
$PSAMDLOK,31,0x3DF,0x020*2E
$PSAMDLERR,12,2,0x17F*57
$PSAMDLOK,10,0x038,0x040*21
$PSAMDLOK,78,0x00F,0x000*56
$PSAMDLOK,65,0x00F,0x000*5A
$PSAMDLOK,81,0x000,0x000*26
$PSAMDLOK,88,0x00F,0x000*59
$PSAMDLOK,79,0x000,0x000*21
$PSAMDLOK,72,0x00F,0x000*5C
$PSAMDLOK,87,0x000,0x00F*56
$PSAMDLOK,77,0x000,0x00F*59
$GPGGA,184442.000,2159.8723,S,04754.7353,W,1,07,1.4,853.3,M,-4.3,M,,*48
$GPGLL,2159.8723,S,04754.7353,W,184442.000,A,A*58
$GPVTG,295.4,T,,M,15.3,N,28.4,K,A*0E
$GPGSV,3,1,09,10,63,293,28,12,30,213,42,15,00,086,42,18,57,223,34*71
$GPGSV,3,2,09,22,78,146,20,23,47,350,41,26,31,305,38,27,40,341,13*70
$GPGSV,3,3,09,31,04,010,33*47
$GLGSV,2,1,08,65,34,093,40,72,09,140,33,77,22,355,29,78,53,289,44*6F
$GLGSV,2,2,08,79,26,224,36,81,26,232,36,87,09,127,29,88,33,170,38*69
$BDGSV,1,1,04,222,20,359,35,224,04,223,32,226,17,064,16,229,37,132,44*6F
$GPGSA,A,3,18,23,,,,,,,,,,,3.4,1.4,3.0*3B
$GNGSA,A,3,65,78,87,88,,,,,,,,,3.4,1.4,3.0*2E
$BDGSA,A,3,229,,,,,,,,,,,,3.4,1.4,3.0*1B
$GPRMC,184442.000,A,2159.8723,S,04754.7353,W,15.3,295.4,171022,,,A*55
$PSAMCLK,2232,15390000,7,9661409,735897,153900000*7F
$GPGGA,184443.000,2159.8705,S,04754.7402,W,1,07,1.4,853.7,M,-4.3,M,,*4A
$GPGLL,2159.8705,S,04754.7402,W,184443.000,A,A*5E
$GPVTG,294.2,T,,M,18.3,N,33.9,K,A*03
$GPGSV,3,1,10,10,63,293,28,12,30,213,41,15,00,086,42,18,57,223,34*7A
$GPGSV,3,2,10,22,78,146,20,23,47,350,42,26,31,305,38,27,40,341,11*79
$GPGSV,3,3,10,31,04,010,33,32,66,043,19*71
$GLGSV,2,1,08,65,34,093,40,72,09,140,33,77,22,355,28,78,53,289,44*6E
$GLGSV,2,2,08,79,26,224,36,81,26,232,39,87,09,127,29,88,33,170,38*66
$BDGSV,1,1,04,222,20,359,35,224,04,223,31,226,17,064,16,229,37,132,44*6C
$GPGSA,A,3,18,23,,,,,,,,,,,3.4,1.4,3.0*3B
$GNGSA,A,3,65,78,87,88,,,,,,,,,3.4,1.4,3.0*2E
$BDGSA,A,3,229,,,,,,,,,,,,3.4,1.4,3.0*1B
$GPRMC,184443.000,A,2159.8705,S,04754.7402,W,18.3,294.2,171022,,,A*59
$PSAMCLK,2232,15390100,7,9661413,797223,153901000*79
$PSAMDLOK,167,0x3FF,0x000*1C
$PSAMDLOK,78,0x00F,0x000*56
$PSAMDLOK,65,0x00F,0x000*5A
$PSAMDLOK,81,0x00F,0x000*50
$PSAMDLOK,79,0x000,0x000*21
$PSAMDLOK,88,0x000,0x000*2F
$PSAMDLOK,72,0x00F,0x000*5C
$PSAMDLOK,160,0x04B,0x3FC*68
$PSAMDLOK,87,0x000,0x00F*56
$PSAMDLOK,77,0x000,0x00F*59
$GPGGA,184444.000,2159.8682,S,04754.7456,W,1,07,1.4,854.1,M,-4.3,M,,*43
$GPGLL,2159.8682,S,04754.7456,W,184444.000,A,A*56
$GPVTG,292.9,T,,M,19.9,N,36.8,K,A*01
$GPGSV,3,1,10,10,63,293,28,12,30,213,40,15,00,086,42,18,57,223,35*7A
$GPGSV,3,2,10,22,78,146,20,23,47,350,42,26,31,305,38,27,40,341,10*78
$GPGSV,3,3,10,31,04,010,33,32,66,043,19*71
$GLGSV,2,1,08,65,34,093,40,72,09,140,34,77,22,355,28,78,53,289,44*69
$GLGSV,2,2,08,79,26,224,36,81,26,232,39,87,09,127,28,88,33,170,38*67
$BDGSV,1,1,04,222,20,359,35,224,04,223,31,226,17,064,15,229,36,132,44*6E
$GPGSA,A,3,18,23,,,,,,,,,,,3.4,1.4,3.0*3B
$GNGSA,A,3,65,78,87,88,,,,,,,,,3.4,1.4,3.0*2E
$BDGSA,A,3,229,,,,,,,,,,,,3.4,1.4,3.0*1B
$GPRMC,184444.000,A,2159.8682,S,04754.7456,W,19.9,292.9,171022,,,A*57
$PSAMCLK,2232,15390200,7,9661364,858550,153902000*71
$GPGGA,184445.000,2159.8660,S,04754.7512,W,1,07,1.4,855.1,M,-4.3,M,,*4E
$GPGLL,2159.8660,S,04754.7512,W,184445.000,A,A*5A
$GPVTG,291.2,T,,M,20.6,N,38.2,K,A*08
$GPGSV,3,1,10,10,63,293,30,12,30,213,39,15,00,086,42,18,57,223,35*7D
$GPGSV,3,2,10,22,78,146,20,23,47,350,45,26,31,305,38,27,40,341,09*77
$GPGSV,3,3,10,31,04,010,33,32,66,043,19*71
$GLGSV,2,1,08,65,34,093,40,72,09,140,34,77,22,355,27,78,53,289,44*66
$GLGSV,2,2,08,79,26,224,36,81,26,232,38,87,09,127,28,88,33,170,37*69
$BDGSV,1,1,04,222,20,359,34,224,04,223,30,226,17,064,15,229,36,132,44*6E
$GPGSA,A,3,18,23,,,,,,,,,,,3.4,1.4,3.0*3B
$GNGSA,A,3,65,78,87,88,,,,,,,,,3.4,1.4,3.0*2E
$BDGSA,A,3,229,,,,,,,,,,,,3.4,1.4,3.0*1B
$GPRMC,184445.000,A,2159.8660,S,04754.7512,W,20.6,291.2,171022,,,A*56
$PSAMCLK,2232,15390300,7,9661430,919878,153903000*74
$PSAMDLOK,78,0x00F,0x000*56
$PSAMDLOK,65,0x00F,0x000*5A
$PSAMDLOK,88,0x000,0x000*2F
$PSAMDLOK,79,0x000,0x000*21
$PSAMDLOK,81,0x000,0x000*26
$PSAMDLOK,77,0x000,0x00F*59
$PSAMDLOK,72,0x000,0x00F*5C
$PSAMDLOK,87,0x000,0x00F*56
$GPGGA,184446.000,2159.8638,S,04754.7577,W,1,07,1.4,853.3,M,-4.3,M,,*47
$GPGLL,2159.8638,S,04754.7577,W,184446.000,A,A*57
$GPVTG,290.2,T,,M,23.9,N,44.2,K,A*0E
$GPGSV,3,1,10,10,63,293,37,12,30,213,38,15,00,086,42,18,57,223,35*7B
$GPGSV,3,2,10,22,78,146,18,23,47,350,48,26,31,305,37,27,40,341,08*7F
$GPGSV,3,3,10,31,04,010,33,32,66,043,18*70
$GLGSV,2,1,08,65,34,093,41,72,09,140,34,77,22,355,27,78,53,289,44*67
$GLGSV,2,2,08,79,26,224,36,81,26,232,38,87,09,127,28,88,33,170,37*69
$BDGSV,1,1,04,222,20,359,42,224,04,223,29,226,17,064,15,229,36,132,44*67
$GPGSA,A,3,18,23,,,,,,,,,,,3.4,1.4,3.0*3B
$GNGSA,A,3,65,78,87,88,,,,,,,,,3.4,1.4,3.0*2E
$BDGSA,A,3,229,,,,,,,,,,,,3.4,1.4,3.0*1B
$GPRMC,184446.000,A,2159.8638,S,04754.7577,W,23.9,290.2,171022,,,A*56
$PSAMCLK,2232,15390400,7,9661251,981197,153904000*7C
$GPGGA,184447.000,2159.8616,S,04754.7653,W,1,07,1.4,851.9,M,-4.3,M,,*47
$GPGLL,2159.8616,S,04754.7653,W,184447.000,A,A*5F
$GPVTG,289.9,T,,M,26.4,N,49.0,K,A*0A
$GPGSV,3,1,10,10,63,293,36,12,30,213,39,15,00,086,41,18,57,223,35*78
$GPGSV,3,2,10,22,78,146,17,23,47,350,48,26,31,305,36,27,40,341,08*71
$GPGSV,3,3,10,31,04,010,33,32,66,043,16*7E
$GLGSV,2,1,08,65,34,093,41,72,09,140,33,77,22,355,27,78,53,289,44*60
$GLGSV,2,2,08,79,26,224,36,81,26,232,38,87,09,127,30,88,33,170,37*60
$BDGSV,1,1,04,222,20,359,42,224,04,223,27,226,17,064,14,229,36,132,44*68
$GPGSA,A,3,18,23,,,,,,,,,,,3.4,1.4,3.0*3B
$GNGSA,A,3,65,78,87,88,,,,,,,,,3.4,1.4,3.0*2E
$BDGSA,A,3,229,,,,,,,,,,,,3.4,1.4,3.0*1B
$GPRMC,184447.000,A,2159.8616,S,04754.7653,W,26.4,289.9,171022,,,A*55
$PSAMCLK,2232,15390500,7,9661219,1042516,153905000*4A
$PSAMDLOK,23,0x3FF,0x000*2D
$PSAMDLOK,15,0x3FF,0x000*28
$PSAMDLOK,12,0x3DD,0x020*2D
$PSAMDLOK,31,0x3FF,0x000*2E
$PSAMDLOK,26,0x3D9,0x100*54
$PSAMDLERR,18,3,0x19F*52
$PSAMDLERR,10,3,0x2BD*20
$PSAMDLOK,78,0x00F,0x000*56
$PSAMDLOK,65,0x00F,0x000*5A
$PSAMDLOK,88,0x00F,0x000*59
$PSAMDLOK,79,0x00F,0x000*57
$PSAMDLOK,87,0x00F,0x00F*20
$PSAMDLOK,81,0x000,0x000*26
$PSAMDLOK,72,0x000,0x000*2A
$PSAMDLOK,77,0x000,0x00F*59
$GPGGA,184448.000,2159.8593,S,04754.7729,W,1,08,1.4,850.3,M,-4.3,M,,*4E
$GPGLL,2159.8593,S,04754.7729,W,184448.000,A,A*52
$GPVTG,288.4,T,,M,28.6,N,53.0,K,A*01
$GPGSV,3,1,09,10,63,293,36,12,30,213,39,15,18,073,41,18,57,223,35*73
$GPGSV,3,2,09,22,78,146,15,23,47,350,48,26,31,305,36,31,04,010,34*74
$GPGSV,3,3,09,32,66,043,15*42
$GLGSV,2,1,08,65,34,093,41,72,09,140,33,77,21,355,27,78,53,289,44*63
$GLGSV,2,2,08,79,26,224,36,81,26,232,37,87,09,127,33,88,33,170,37*6C
$BDGSV,1,1,04,222,20,359,42,224,04,223,26,226,17,064,14,229,36,132,44*69
$GPGSA,A,3,18,23,15,,,,,,,,,,3.2,1.4,3.0*39
$GNGSA,A,3,65,78,87,88,,,,,,,,,3.2,1.4,3.0*28
$BDGSA,A,3,229,,,,,,,,,,,,3.2,1.4,3.0*1D
$GPRMC,184448.000,A,2159.8593,S,04754.7729,W,28.6,288.4,171022,,,A*58
$PSAMCLK,2232,15390600,8,9661233,1103837,153906000*47
$GPGGA,184449.000,2159.8565,S,04754.7811,W,1,08,1.4,850.5,M,-4.3,M,,*44
$GPGLL,2159.8565,S,04754.7811,W,184449.000,A,A*5E
$GPVTG,289.2,T,,M,28.7,N,53.2,K,A*05
$GPGSV,3,1,09,10,63,293,35,12,30,213,39,15,18,073,41,18,57,223,34*71
$GPGSV,3,2,09,22,78,146,14,23,47,350,48,26,31,305,36,31,04,010,34*75
$GPGSV,3,3,09,32,66,043,13*44
$GLGSV,2,1,08,65,34,093,41,72,09,140,32,77,21,355,27,78,53,289,44*62
$GLGSV,2,2,08,79,26,224,35,81,26,232,36,87,09,127,33,88,33,170,37*6E
$BDGSV,2,1,05,212,48,257,20,222,20,359,41,224,04,223,25,226,17,064,14*68
$BDGSV,2,2,05,229,36,132,44*61
$GPGSA,A,3,18,23,15,,,,,,,,,,3.2,1.4,3.0*39
$GNGSA,A,3,65,78,87,88,,,,,,,,,3.2,1.4,3.0*28
$BDGSA,A,3,229,,,,,,,,,,,,3.2,1.4,3.0*1D
$GPRMC,184449.000,A,2159.8565,S,04754.7811,W,28.7,289.2,171022,,,A*52
$PSAMCLK,2232,15390700,8,9661210,1165163,153907000*4E
$PSAMDLOK,78,0x00F,0x000*56
$PSAMDLOK,65,0x00F,0x000*5A
$PSAMDLOK,167,0x3FF,0x000*1C
$PSAMDLOK,88,0x00F,0x000*59
$PSAMDLOK,160,0x23E,0x3FF*6F
$PSAMDLOK,79,0x000,0x000*21
$PSAMDLOK,87,0x000,0x000*20
$PSAMDLOK,81,0x000,0x000*26
$PSAMDLOK,72,0x000,0x00F*5C
$PSAMDLOK,77,0x000,0x00F*59
$GPGGA,184450.000,2159.8540,S,04754.7896,W,1,08,1.4,850.2,M,-4.3,M,,*43
$GPGLL,2159.8540,S,04754.7896,W,184450.000,A,A*5E
$GPVTG,289.4,T,,M,29.2,N,54.0,K,A*02
$GPGSV,3,1,09,10,63,293,34,12,30,213,38,15,18,073,41,18,57,223,34*71
$GPGSV,3,2,09,22,78,146,12,23,47,350,48,26,31,305,35,31,04,010,34*70
$GPGSV,3,3,09,32,66,043,12*45
$GLGSV,2,1,08,65,34,093,41,72,09,140,32,77,21,355,26,78,53,289,44*63
$GLGSV,2,2,08,79,26,224,35,81,26,232,36,87,09,127,32,88,33,170,37*6F
$BDGSV,2,1,05,212,48,257,19,222,20,359,41,224,04,223,24,226,17,064,14*63
$BDGSV,2,2,05,229,36,132,43*66
$GPGSA,A,3,18,23,15,,,,,,,,,,3.2,1.4,3.0*39
$GNGSA,A,3,65,78,87,88,,,,,,,,,3.2,1.4,3.0*28
$BDGSA,A,3,229,,,,,,,,,,,,3.2,1.4,3.0*1D
$GPRMC,184450.000,A,2159.8540,S,04754.7896,W,29.2,289.4,171022,,,A*50
$PSAMCLK,2232,15390800,8,9661161,1226487,153908000*40
$GPGGA,184451.000,2159.8512,S,04754.7984,W,1,08,1.4,847.5,M,-4.3,M,,*46
$GPGLL,2159.8512,S,04754.7984,W,184451.000,A,A*5A
$GPVTG,289.3,T,,M,30.3,N,56.2,K,A*0C
$GPGSV,3,1,09,10,63,293,34,12,30,213,38,15,18,073,41,18,57,223,33*76
$GPGSV,3,2,09,22,78,146,11,23,47,350,48,26,31,305,35,31,04,010,34*73
$GPGSV,3,3,09,32,66,043,10*47
$GLGSV,2,1,08,65,34,093,41,72,09,140,31,77,21,355,26,78,53,289,44*60
$GLGSV,2,2,08,79,26,224,35,81,26,232,35,87,09,127,32,88,33,170,37*6C
$BDGSV,2,1,05,212,48,257,19,222,20,359,40,224,04,223,24,226,17,064,14*62
$BDGSV,2,2,05,229,36,132,43*66
$GPGSA,A,3,18,23,15,,,,,,,,,,3.2,1.4,3.0*39
$GNGSA,A,3,65,78,87,88,,,,,,,,,3.2,1.4,3.0*28
$BDGSA,A,3,229,,,,,,,,,,,,3.2,1.4,3.0*1D
$GPRMC,184451.000,A,2159.8512,S,04754.7984,W,30.3,289.3,171022,,,A*5A
$PSAMCLK,2232,15390900,8,9660983,1287803,153909000*4E
$PSAMDLOK,78,0x00F,0x000*56
$PSAMDLOK,65,0x00F,0x000*5A
$PSAMDLOK,88,0x00F,0x000*59
$PSAMDLOK,81,0x000,0x000*26
$PSAMDLOK,79,0x000,0x000*21
$PSAMDLOK,72,0x000,0x00F*5C
$PSAMDLOK,87,0x000,0x00F*56
$PSAMDLOK,77,0x000,0x00F*59
$GPGGA,184452.000,2159.8483,S,04754.8067,W,1,08,1.4,847.7,M,-4.3,M,,*45
$GPGLL,2159.8483,S,04754.8067,W,184452.000,A,A*5B
$GPVTG,289.5,T,,M,30.8,N,57.0,K,A*02
$GPGSV,3,1,09,10,63,293,33,12,30,213,37,15,18,073,41,18,57,223,33*7E
$GPGSV,3,2,09,22,78,146,09,23,47,350,48,26,31,305,35,31,04,010,35*7B
$GPGSV,3,3,09,32,66,043,09*4F
$GLGSV,2,1,08,65,34,093,41,72,09,140,31,77,21,355,25,78,53,289,44*63
$GLGSV,2,2,08,79,26,224,35,81,26,232,35,87,09,127,31,88,33,170,37*6F
$BDGSV,2,1,05,212,48,257,19,222,20,359,40,224,04,223,25,226,17,064,13*64
$BDGSV,2,2,05,229,36,132,43*66
$GPGSA,A,3,18,23,15,,,,,,,,,,3.2,1.4,3.0*39
$GNGSA,A,3,65,78,87,88,,,,,,,,,3.2,1.4,3.0*28
$BDGSA,A,3,229,,,,,,,,,,,,3.2,1.4,3.0*1D
$GPRMC,184452.000,A,2159.8483,S,04754.8067,W,30.8,289.5,171022,,,A*56
$PSAMCLK,2232,15391000,8,9660641,1349126,153910000*42
$GPGGA,184453.000,2159.8453,S,04754.8153,W,1,08,1.4,847.4,M,-4.3,M,,*4C
$GPGLL,2159.8453,S,04754.8153,W,184453.000,A,A*51
$GPVTG,289.3,T,,M,30.9,N,57.3,K,A*06
$GPGSV,3,1,09,10,63,293,33,12,30,213,36,15,18,073,41,18,57,223,33*7F
$GPGSV,3,2,09,22,78,146,09,23,47,350,48,26,31,305,38,31,04,010,35*76
$GPGSV,3,3,09,32,66,043,08*4E
$GLGSV,2,1,08,65,34,093,42,72,09,140,30,77,21,355,25,78,53,289,44*61
$GLGSV,2,2,08,79,26,224,38,81,26,232,37,87,09,127,31,88,33,170,38*6F
$BDGSV,2,1,05,212,48,257,18,222,20,359,39,224,04,223,25,226,17,064,27*6C
$BDGSV,2,2,05,229,36,132,43*66
$GPGSA,A,3,18,23,15,,,,,,,,,,3.2,1.4,3.0*39
$GNGSA,A,3,65,78,87,88,,,,,,,,,3.2,1.4,3.0*28
$BDGSA,A,3,229,,,,,,,,,,,,3.2,1.4,3.0*1D
$GPRMC,184453.000,A,2159.8453,S,04754.8153,W,30.9,289.3,171022,,,A*5B
$PSAMCLK,2232,15391100,8,9660651,1410447,153911000*4A
$PSAMDLOK,23,0x3FF,0x000*2D
$PSAMDLERR,15,2,0x3F9*5C
$PSAMDLERR,10,3,0x2F5*55
$PSAMDLOK,31,0x3FF,0x000*2E
$PSAMDLERR,26,3,0x2ED*22
$PSAMDLERR,18,2,0x1FE*2F
$PSAMDLERR,12,4,0x3E4*53
$PSAMDLOK,78,0x00F,0x000*56
$PSAMDLOK,65,0x00F,0x000*5A
$PSAMDLOK,88,0x00F,0x000*59
$PSAMDLOK,72,0x000,0x00F*5C
$PSAMDLOK,79,0x000,0x000*21
$PSAMDLOK,87,0x000,0x00F*56
$PSAMDLOK,81,0x000,0x000*26
$PSAMDLOK,77,0x000,0x00F*59
$GPGGA,184454.000,2159.8424,S,04754.8233,W,1,09,0.8,849.6,M,-4.3,M,,*4E
$GPGLL,2159.8424,S,04754.8233,W,184454.000,A,A*53
$GPVTG,289.1,T,,M,30.3,N,56.1,K,A*0D
$GPGSV,3,1,09,10,63,293,32,12,30,213,36,15,18,073,41,18,57,223,33*7E
$GPGSV,3,2,09,22,78,146,08,23,47,350,48,26,31,305,38,31,17,280,35*7E
$GPGSV,3,3,09,32,66,043,08*4E
$GLGSV,2,1,08,65,34,093,42,72,09,140,30,77,21,355,25,78,52,289,44*60
$GLGSV,2,2,08,79,26,224,37,81,26,232,37,87,09,127,30,88,33,170,38*61
$BDGSV,2,1,05,212,48,257,17,222,20,359,38,224,04,223,25,226,17,064,28*6D
$BDGSV,2,2,05,229,36,132,43*66
$GPGSA,A,3,18,23,15,31,,,,,,,,,1.8,0.8,1.6*3A
$GNGSA,A,3,65,78,87,88,,,,,,,,,1.8,0.8,1.6*29
$BDGSA,A,3,229,,,,,,,,,,,,1.8,0.8,1.6*1C
$GPRMC,184454.000,A,2159.8424,S,04754.8233,W,30.3,289.1,171022,,,A*51
$PSAMCLK,2232,15391200,9,9660615,1471774,153912000*4F
$GPGGA,184455.000,2159.8399,S,04754.8310,W,1,09,0.8,850.5,M,-4.3,M,,*45
$GPGLL,2159.8399,S,04754.8310,W,184455.000,A,A*53
$GPVTG,289.9,T,,M,27.1,N,50.1,K,A*07
$GPGSV,2,1,08,10,63,293,33,12,30,213,35,15,18,073,41,18,57,223,32*7D
$GPGSV,2,2,08,22,78,146,07,23,47,350,48,26,31,305,37,31,17,280,35*7E
$GLGSV,2,1,08,65,34,093,42,72,09,140,38,77,21,355,25,78,52,289,44*68
$GLGSV,2,2,08,79,26,224,37,81,26,232,36,87,09,127,33,88,33,170,38*63
$BDGSV,2,1,05,212,48,257,15,222,20,359,38,224,04,223,25,226,17,064,29*6E
$BDGSV,2,2,05,229,36,132,42*67
$GPGSA,A,3,18,23,15,31,,,,,,,,,1.8,0.8,1.6*3A
$GNGSA,A,3,65,78,87,88,,,,,,,,,1.8,0.8,1.6*29
$BDGSA,A,3,229,,,,,,,,,,,,1.8,0.8,1.6*1C
$GPRMC,184455.000,A,2159.8399,S,04754.8310,W,27.1,289.9,171022,,,A*5D
$PSAMCLK,2232,15391300,9,9660607,1533096,153913000*40
$PSAMDLOK,78,0x00F,0x000*56
$PSAMDLOK,65,0x00F,0x000*5A
$PSAMDLOK,160,0x361,0x0FF*1C
$PSAMDLOK,167,0x3FF,0x000*1C
$PSAMDLOK,88,0x000,0x000*2F
$PSAMDLOK,79,0x000,0x000*21
$PSAMDLOK,87,0x000,0x00F*56
$PSAMDLOK,81,0x000,0x00F*50
$PSAMDLOK,77,0x000,0x00F*59
$PSAMDLOK,72,0x000,0x000*2A
$GPGGA,184456.000,2159.8374,S,04754.8377,W,1,09,0.8,851.3,M,-4.3,M,,*43
$GPGLL,2159.8374,S,04754.8377,W,184456.000,A,A*52
$GPVTG,291.9,T,,M,24.1,N,44.6,K,A*0F
$GPGSV,2,1,07,10,63,293,34,12,30,213,38,15,18,073,41,18,57,223,32*78
$GPGSV,2,2,07,23,47,350,48,26,31,305,37,31,17,280,35*4A
$GLGSV,2,1,08,65,34,093,42,72,09,140,38,77,21,355,29,78,52,289,44*64
$GLGSV,2,2,08,79,26,224,37,81,26,232,36,87,09,127,35,88,33,170,38*65
$BDGSV,2,1,05,212,48,257,14,222,20,359,39,224,04,223,24,226,17,064,29*6F
$BDGSV,2,2,05,229,36,132,42*67
$GPGSA,A,3,18,23,15,31,,,,,,,,,1.8,0.8,1.6*3A
$GNGSA,A,3,65,78,87,88,,,,,,,,,1.8,0.8,1.6*29
$BDGSA,A,3,229,,,,,,,,,,,,1.8,0.8,1.6*1C
$GPRMC,184456.000,A,2159.8374,S,04754.8377,W,24.1,291.9,171022,,,A*56
$PSAMCLK,2232,15391400,9,9660619,1594420,153914000*4B
$GPGGA,184457.000,2159.8350,S,04754.8443,W,1,08,0.8,852.2,M,-4.3,M,,*47
$GPGLL,2159.8350,S,04754.8443,W,184457.000,A,A*55
$GPVTG,291.9,T,,M,24.0,N,44.4,K,A*0C
$GPGSV,2,1,07,10,63,293,35,12,30,213,42,15,18,073,41,18,57,223,32*74
$GPGSV,2,2,07,23,47,350,48,26,31,305,35,31,17,280,35*48
$GLGSV,2,1,08,65,34,093,42,72,09,140,37,77,21,355,29,78,52,289,44*6B
$GLGSV,2,2,08,79,26,224,36,81,26,232,35,87,09,127,34,88,33,170,38*66
$BDGSV,2,1,05,212,48,257,12,222,20,359,41,224,04,223,22,226,17,064,28*61
$BDGSV,2,2,05,229,36,132,42*67
$GPGSA,A,3,18,23,15,31,,,,,,,,,2.0,0.8,1.8*3F
$GNGSA,A,3,65,78,88,,,,,,,,,,2.0,0.8,1.8*23
$BDGSA,A,3,229,,,,,,,,,,,,2.0,0.8,1.8*19
$GPRMC,184457.000,A,2159.8350,S,04754.8443,W,24.0,291.9,171022,,,A*50
$PSAMCLK,2232,15391500,8,9660634,1655743,153915000*4D
$PSAMDLOK,78,0x00F,0x000*56
$PSAMDLOK,65,0x00F,0x000*5A
$PSAMDLOK,88,0x000,0x000*2F
$PSAMDLOK,77,0x000,0x000*2F
$PSAMDLOK,79,0x000,0x00F*57
$PSAMDLOK,81,0x000,0x00F*50
$PSAMDLOK,87,0x000,0x00F*56
$PSAMDLOK,72,0x000,0x00F*5C
$GPGGA,184458.000,2159.8325,S,04754.8506,W,1,09,0.8,853.0,M,-4.3,M,,*48
$GPGLL,2159.8325,S,04754.8506,W,184458.000,A,A*58
$GPVTG,292.6,T,,M,22.1,N,40.9,K,A*0E
$GPGSV,2,1,07,10,63,293,36,12,30,213,43,15,18,073,41,18,57,223,32*76
$GPGSV,2,2,07,23,47,350,48,26,31,305,34,31,17,280,35*49
$GLGSV,2,1,08,65,34,093,42,72,09,140,36,77,21,355,29,78,52,289,44*6A
$GLGSV,2,2,08,79,26,224,35,81,26,232,34,87,09,127,34,88,33,170,38*64
$BDGSV,2,1,05,212,48,257,11,222,20,359,41,224,04,223,22,226,17,064,27*6D
$BDGSV,2,2,05,229,36,132,42*67
$GPGSA,A,3,18,23,15,31,,,,,,,,,1.8,0.8,1.6*3A
$GNGSA,A,3,65,78,87,88,,,,,,,,,1.8,0.8,1.6*29
$BDGSA,A,3,229,,,,,,,,,,,,1.8,0.8,1.6*1C
$GPRMC,184458.000,A,2159.8325,S,04754.8506,W,22.1,292.6,171022,,,A*56
$PSAMCLK,2232,15391600,9,9660589,1717068,153916000*40
$GPGGA,184459.000,2159.8302,S,04754.8562,W,1,09,0.8,853.4,M,-4.3,M,,*4A
$GPGLL,2159.8302,S,04754.8562,W,184459.000,A,A*5E
$GPVTG,293.2,T,,M,19.0,N,35.1,K,A*08
$GPGSV,2,1,07,10,63,293,36,12,30,213,43,15,18,073,41,18,57,223,32*76
$GPGSV,2,2,07,23,47,350,48,26,31,305,32,31,17,280,35*4F
$GLGSV,2,1,08,65,34,093,42,72,09,140,35,77,21,355,29,78,52,289,44*69
$GLGSV,2,2,08,79,26,224,34,81,26,232,33,87,09,127,33,88,33,170,37*6A
$BDGSV,2,1,05,212,48,257,09,222,20,359,42,224,04,223,21,226,17,064,27*64
$BDGSV,2,2,05,229,36,132,42*67
$GPGSA,A,3,18,23,15,31,,,,,,,,,1.8,0.8,1.6*3A
$GNGSA,A,3,65,78,87,88,,,,,,,,,1.8,0.8,1.6*29
$BDGSA,A,3,229,,,,,,,,,,,,1.8,0.8,1.6*1C
$GPRMC,184459.000,A,2159.8302,S,04754.8562,W,19.0,293.2,171022,,,A*5C
$PSAMCLK,2232,15391700,9,9660540,1778387,153917000*4E
$PSAMDLOK,23,0x3FF,0x000*2D
$PSAMDLERR,12,1,0x3FD*25
$PSAMDLOK,15,0x3FF,0x000*28
$PSAMDLERR,10,3,0x1FC*20
$PSAMDLOK,31,0x3FF,0x000*2E
$PSAMDLERR,18,1,0x3FD*2F
$PSAMDLOK,78,0x00F,0x000*56
$PSAMDLOK,65,0x00F,0x000*5A
$PSAMDLOK,79,0x000,0x000*21
$PSAMDLOK,81,0x000,0x00F*50
$PSAMDLOK,88,0x000,0x000*2F
$PSAMDLOK,77,0x00F,0x000*59
$PSAMDLOK,87,0x000,0x00F*56
$PSAMDLOK,72,0x000,0x00F*5C
$GPGGA,184500.000,2159.8283,S,04754.8604,W,1,10,0.8,853.7,M,-4.3,M,,*47
$GPGLL,2159.8283,S,04754.8604,W,184500.000,A,A*58
$GPVTG,293.9,T,,M,13.2,N,24.5,K,A*0F
$GPGSV,2,1,07,10,63,293,37,12,18,030,43,15,18,073,42,18,57,223,32*7D
$GPGSV,2,2,07,23,47,350,48,26,31,305,31,31,17,280,35*4C
$GLGSV,2,1,08,65,34,094,42,72,09,140,34,77,21,355,29,78,52,289,44*6F
$GLGSV,2,2,08,79,26,224,34,81,26,231,33,87,09,127,32,88,33,169,37*60
$BDGSV,2,1,05,212,48,257,08,222,20,359,42,224,04,223,21,226,17,064,26*64
$BDGSV,2,2,05,229,36,132,42*67
$GPGSA,A,3,18,23,12,15,31,,,,,,,,1.8,0.8,1.4*3B
$GNGSA,A,3,65,78,87,88,,,,,,,,,1.8,0.8,1.4*2B
$BDGSA,A,3,229,,,,,,,,,,,,1.8,0.8,1.4*1E
$GPRMC,184500.000,A,2159.8283,S,04754.8604,W,13.2,293.9,171022,,,A*59
$PSAMCLK,2232,15391800,10,9660541,1839708,153918000*7E
$GPGGA,184501.000,2159.8273,S,04754.8635,W,1,10,0.8,853.6,M,-4.3,M,,*4A
$GPGLL,2159.8273,S,04754.8635,W,184501.000,A,A*54
$GPVTG,289.9,T,,M,8.2,N,15.1,K,A*38
$GPGSV,2,1,07,10,63,293,36,12,18,030,43,15,18,073,42,18,57,222,32*7D
$GPGSV,2,2,07,23,48,350,47,26,31,305,29,31,17,280,35*45
$GLGSV,2,1,08,65,34,094,42,72,09,140,33,77,21,355,29,78,52,289,44*68
$GLGSV,2,2,08,79,26,224,36,81,26,231,33,87,09,127,32,88,33,169,37*62
$BDGSV,2,1,05,212,48,257,08,222,20,359,42,224,04,223,21,226,17,064,25*67
$BDGSV,2,2,05,229,36,132,42*67
$GPGSA,A,3,18,23,12,15,31,,,,,,,,1.8,0.8,1.4*3B
$GNGSA,A,3,65,78,87,88,,,,,,,,,1.8,0.8,1.4*2B
$BDGSA,A,3,229,,,,,,,,,,,,1.8,0.8,1.4*1E
$GPRMC,184501.000,A,2159.8273,S,04754.8635,W,8.2,289.9,171022,,,A*64
$PSAMCLK,2232,15391900,10,9660456,1901029,153919000*77
$PSAMDLOK,79,0x000,0x000*21
$PSAMDLOK,78,0x00F,0x000*56
$PSAMDLOK,81,0x000,0x000*26
$PSAMDLOK,65,0x00F,0x000*5A
$PSAMDLOK,167,0x3FF,0x000*1C
$PSAMDLOK,88,0x000,0x000*2F
$PSAMDLOK,160,0x1FF,0x200*1B
$PSAMDLOK,87,0x000,0x00F*56
$PSAMDLOK,72,0x000,0x00F*5C
$PSAMDLOK,77,0x000,0x00F*59
$GPGGA,184502.000,2159.8260,S,04754.8656,W,1,10,0.8,853.3,M,-4.3,M,,*4B
$GPGLL,2159.8260,S,04754.8656,W,184502.000,A,A*50
$GPVTG,296.9,T,,M,8.8,N,16.2,K,A*3C
$GPGSV,2,1,07,10,63,293,35,12,18,030,42,15,18,073,43,18,57,222,31*7D
$GPGSV,2,2,07,23,48,350,47,26,31,305,28,31,17,280,34*45
$GLGSV,2,1,08,65,34,094,43,72,09,140,32,77,21,355,29,78,52,289,44*68
$GLGSV,2,2,08,79,26,224,44,81,26,231,41,87,09,127,31,88,33,169,37*61
$BDGSV,2,1,05,212,48,257,07,222,20,359,41,224,04,223,21,226,17,064,24*6A
$BDGSV,2,2,05,229,36,132,41*64
$GPGSA,A,3,18,23,12,15,31,,,,,,,,1.8,0.8,1.4*3B
$GNGSA,A,3,65,78,87,88,,,,,,,,,1.8,0.8,1.4*2B
$BDGSA,A,3,229,,,,,,,,,,,,1.8,0.8,1.4*1E
$GPRMC,184502.000,A,2159.8260,S,04754.8656,W,8.8,296.9,171022,,,A*64
$PSAMCLK,2232,15392000,10,9660665,1962350,153920000*7D
$GPGGA,184503.000,2159.8245,S,04754.8681,W,1,10,0.8,853.7,M,-4.3,M,,*43
$GPGLL,2159.8245,S,04754.8681,W,184503.000,A,A*5C
$GPVTG,298.5,T,,M,10.9,N,20.2,K,A*03
$GPGSV,2,1,07,10,63,293,34,12,18,030,42,15,18,073,44,18,57,222,31*7B
$GPGSV,2,2,07,23,48,350,47,26,31,305,26,31,17,280,34*4B
$GLGSV,2,1,08,65,34,094,43,72,09,140,32,77,21,355,28,78,52,289,44*69
