$GPGGA,190508.000,2200.1784,S,04755.8337,W,1,18,0.4,848.1,M,-4.3,M,,*42
$GPGLL,2200.1784,S,04755.8337,W,190508.000,A,A*55
$GPVTG,9.4,T,,M,0.0,N,0.0,K,A*00
$GPGSV,2,1,06,10,26,336,29,12,10,028,38,15,21,082,33,18,54,206,29*7D
$GPGSV,2,2,06,23,58,349,37,31,14,289,34*7A
$GLGSV,2,1,08,65,35,107,31,66,31,036,40,77,12,358,16,78,45,304,37*6B
$GLGSV,2,2,08,79,31,235,29,81,27,220,31,87,06,117,23,88,31,158,44*61
$BDGSV,2,1,05,219,50,071,39,220,23,126,35,222,29,002,27,226,32,270,34*64
$BDGSV,2,2,05,229,34,122,38*69
$GPGSA,A,3,23,18,10,15,31,12,,,,,,,1.4,0.4,1.2*3C
$GNGSA,A,3,65,66,77,78,79,81,88,,,,,,1.4,0.4,1.2*25
$BDGSA,A,3,219,220,222,226,229,,,,,,,,1.4,0.4,1.2*16
$GPRMC,190508.000,A,2200.1784,S,04755.8337,W,0.0,9.4,171022,,,A*68
$PSAMCLK,2232,15512600,18,9661116,75921122,155126000*44
$PSAMDLOK,88,0x00F,0x000*59
$PSAMDLOK,66,0x00F,0x000*59
$PSAMDLOK,78,0x000,0x00F*56
$PSAMDLOK,167,0x3FF,0x000*1C
$PSAMDLOK,157,0x3FF,0x000*1F
$PSAMDLOK,158,0x3FF,0x000*10
$PSAMDLOK,65,0x00F,0x000*5A
$PSAMDLOK,81,0x00F,0x000*50
$PSAMDLOK,164,0x27F,0x000*6F
$PSAMDLOK,79,0x00F,0x000*57
$PSAMDLOK,160,0x3FA,0x3FF*1F
$PSAMDLOK,87,0x000,0x00F*56
$PSAMDLOK,77,0x000,0x00F*59
$GPGGA,190509.000,2200.1782,S,04755.8341,W,1,18,0.4,848.0,M,-4.3,M,,*45
$GPGLL,2200.1782,S,04755.8341,W,190509.000,A,A*53
$GPVTG,284.1,T,,M,1.3,N,2.3,K,A*01
$GPGSV,2,1,06,10,26,336,35,12,10,028,38,15,21,082,33,18,54,206,28*71
$GPGSV,2,2,06,23,58,349,37,31,14,289,34*7A
$GLGSV,2,1,08,65,35,107,33,66,31,036,40,77,12,358,17,78,45,304,40*68
$GLGSV,2,2,08,79,31,235,29,81,27,220,31,87,06,117,26,88,31,158,44*64
$BDGSV,2,1,05,219,50,071,39,220,23,126,35,222,29,002,31,226,32,270,34*63
$BDGSV,2,2,05,229,34,122,38*69
$GPGSA,A,3,23,18,10,15,31,12,,,,,,,1.4,0.4,1.2*3C
$GNGSA,A,3,65,66,77,78,79,81,88,,,,,,1.4,0.4,1.2*25
$BDGSA,A,3,219,220,222,226,229,,,,,,,,1.4,0.4,1.2*16
$GPRMC,190509.000,A,2200.1782,S,04755.8341,W,1.3,284.1,171022,,,A*6E
$PSAMCLK,2232,15512700,18,9661202,75982443,155127000*49
$GPGGA,190510.000,2200.1782,S,04755.8343,W,1,19,0.4,847.8,M,-4.3,M,,*49
$GPGLL,2200.1782,S,04755.8343,W,190510.000,A,A*59
$GPVTG,283.7,T,,M,0.6,N,1.1,K,A*05
$GPGSV,2,1,06,10,26,336,41,12,10,028,38,15,21,082,37,18,54,206,28*76
$GPGSV,2,2,06,23,58,349,37,31,14,289,35*7B
$GLGSV,2,1,08,65,35,107,41,66,31,036,44,77,12,358,30,78,45,304,40*6C
$GLGSV,2,2,08,79,31,235,29,81,27,220,31,87,06,117,26,88,31,158,43*63
$BDGSV,2,1,05,219,50,071,40,220,23,126,35,222,29,002,34,226,32,270,33*6F
$BDGSV,2,2,05,229,34,122,38*69
$GPGSA,A,3,23,18,10,15,31,12,,,,,,,1.2,0.4,1.0*38
$GNGSA,A,3,65,66,77,78,79,81,87,88,,,,,1.2,0.4,1.0*2E
$BDGSA,A,3,219,220,222,226,229,,,,,,,,1.2,0.4,1.0*12
$GPRMC,190510.000,A,2200.1782,S,04755.8343,W,0.6,283.7,171022,,,A*61
$PSAMCLK,2232,15512800,19,9661361,76043765,155128000*4C
$PSAMDLOK,66,0x00F,0x000*59
$PSAMDLOK,65,0x000,0x000*2C
$PSAMDLOK,78,0x000,0x000*20
$PSAMDLOK,88,0x000,0x000*2F
$PSAMDLOK,81,0x000,0x000*26
$PSAMDLOK,77,0x000,0x00F*59
$PSAMDLOK,79,0x000,0x000*21
$PSAMDLOK,87,0x000,0x00F*56
$GPGGA,190511.000,2200.1785,S,04755.8343,W,1,19,0.4,847.3,M,-4.3,M,,*44
$GPGLL,2200.1785,S,04755.8343,W,190511.000,A,A*5F
$GPVTG,268.5,T,,M,1.9,N,3.5,K,A*0A
$GPGSV,2,1,06,10,26,336,41,12,10,028,38,15,21,082,36,18,54,206,28*77
$GPGSV,2,2,06,23,58,349,39,31,14,289,35*75
$GLGSV,2,1,08,65,35,107,42,66,31,036,46,77,12,358,30,78,45,304,40*6D
$GLGSV,2,2,08,79,31,235,29,81,27,220,31,87,06,117,25,88,31,158,43*60
$BDGSV,2,1,05,219,50,071,41,220,23,126,35,222,29,002,34,226,32,270,33*6E
$BDGSV,2,2,05,229,34,122,42*64
$GPGSA,A,3,23,18,10,15,31,12,,,,,,,1.2,0.4,1.0*38
$GNGSA,A,3,65,66,77,78,79,81,87,88,,,,,1.2,0.4,1.0*2E
$BDGSA,A,3,219,220,222,226,229,,,,,,,,1.2,0.4,1.0*12
$GPRMC,190511.000,A,2200.1785,S,04755.8343,W,1.9,268.5,171022,,,A*6E
$PSAMCLK,2232,15512900,19,9661846,76105091,155129000*4D
$GPGGA,190512.000,2200.1786,S,04755.8344,W,1,18,0.4,847.1,M,-4.3,M,,*40
$GPGLL,2200.1786,S,04755.8344,W,190512.000,A,A*58
$GPVTG,267.5,T,,M,0.2,N,0.4,K,A*0D
$GPGSV,2,1,06,10,26,336,41,12,10,028,38,15,21,082,36,18,54,206,29*76
$GPGSV,2,2,06,23,58,349,43,31,14,289,36*7B
$GLGSV,2,1,08,65,35,107,42,66,31,036,46,77,12,358,30,78,45,304,41*6C
$GLGSV,2,2,08,79,31,235,29,81,27,220,30,87,06,117,25,88,31,158,42*60
$BDGSV,2,1,05,219,50,071,41,220,23,126,35,222,29,002,34,226,32,270,33*6E
$BDGSV,2,2,05,229,34,122,44*62
$GPGSA,A,3,23,18,10,15,31,12,,,,,,,1.4,0.4,1.2*3C
$GNGSA,A,3,65,66,77,78,79,81,88,,,,,,1.4,0.4,1.2*25
$BDGSA,A,3,219,220,222,226,229,,,,,,,,1.4,0.4,1.2*16
$GPRMC,190512.000,A,2200.1786,S,04755.8344,W,0.2,267.5,171022,,,A*6C
$PSAMCLK,2232,15513000,18,9661680,76166418,155130000*48
$PSAMDLERR,23,3,0x3C7*53
$PSAMDLOK,10,0x3E1,0x00F*2F
$PSAMDLOK,12,0x3FF,0x000*2F
$PSAMDLOK,31,0x3D7,0x001*5C
$PSAMDLOK,15,0x3BB,0x01F*5F
$PSAMDLOK,18,0x3E1,0x03F*24
$PSAMDLOK,66,0x00F,0x000*59
$PSAMDLOK,65,0x00F,0x000*5A
$PSAMDLOK,78,0x00F,0x000*56
$PSAMDLOK,88,0x000,0x000*2F
$PSAMDLOK,79,0x00F,0x000*57
$PSAMDLOK,77,0x000,0x000*2F
$PSAMDLOK,81,0x000,0x00F*50
$PSAMDLOK,87,0x000,0x00F*56
$GPGGA,190513.000,2200.1787,S,04755.8344,W,1,19,0.4,847.1,M,-4.3,M,,*41
$GPGLL,2200.1787,S,04755.8344,W,190513.000,A,A*58
$GPVTG,266.9,T,,M,0.3,N,0.5,K,A*00
$GPGSV,2,1,06,10,26,336,41,12,10,028,38,15,21,082,36,18,54,206,29*76
$GPGSV,2,2,06,23,58,349,43,31,14,289,36*7B
$GLGSV,2,1,08,65,35,107,42,66,31,036,46,77,12,358,30,78,45,304,41*6C
$GLGSV,2,2,08,79,31,235,29,81,27,220,30,87,06,117,24,88,31,158,42*61
$BDGSV,2,1,05,219,50,071,42,220,23,126,35,222,29,002,34,226,32,270,33*6D
$BDGSV,2,2,05,229,34,122,45*63
$GPGSA,A,3,23,18,10,15,31,12,,,,,,,1.2,0.4,1.0*38
$GNGSA,A,3,65,66,77,78,79,81,87,88,,,,,1.2,0.4,1.0*2E
$BDGSA,A,3,219,220,222,226,229,,,,,,,,1.2,0.4,1.0*12
$GPRMC,190513.000,A,2200.1787,S,04755.8344,W,0.3,266.9,171022,,,A*60
$PSAMCLK,2232,15513100,19,9661728,76227750,155131000*43
$GPGGA,190514.000,2200.1785,S,04755.8344,W,1,17,0.4,847.1,M,-4.3,M,,*4A
$GPGLL,2200.1785,S,04755.8344,W,190514.000,A,A*5D
$GPVTG,266.5,T,,M,0.0,N,0.0,K,A*0A
$GPGSV,2,1,06,10,26,336,41,12,10,028,38,15,21,082,36,18,54,206,28*77
$GPGSV,2,2,06,23,58,349,43,31,14,289,36*7B
$GLGSV,2,1,08,65,35,107,43,66,31,036,46,77,12,358,30,78,45,304,41*6D
$GLGSV,2,2,08,79,31,235,30,81,27,220,29,87,06,117,24,88,31,158,42*61
$BDGSV,2,1,05,219,50,071,43,220,23,126,38,222,29,002,34,226,32,270,33*61
$BDGSV,2,2,05,229,34,122,45*63
$GPGSA,A,3,23,10,15,31,12,,,,,,,,1.4,0.4,1.2*35
$GNGSA,A,3,65,66,77,78,79,81,88,,,,,,1.4,0.4,1.2*25
$BDGSA,A,3,219,220,222,226,229,,,,,,,,1.4,0.4,1.2*16
$GPRMC,190514.000,A,2200.1785,S,04755.8344,W,0.0,266.5,171022,,,A*6A
$PSAMCLK,2232,15513200,17,9661798,76289081,155132000*49
$PSAMDLOK,66,0x00F,0x000*59
$PSAMDLOK,167,0x3FE,0x000*1F
$PSAMDLOK,157,0x3FE,0x000*1C
$PSAMDLOK,65,0x00F,0x000*5A
$PSAMDLOK,158,0x3BD,0x1E0*62
$PSAMDLOK,78,0x00F,0x000*56
$PSAMDLOK,88,0x000,0x000*2F
$PSAMDLOK,160,0x3FF,0x1FF*1A
$PSAMDLOK,164,0x3FF,0x3FF*1C
$PSAMDLOK,79,0x00F,0x000*57
$PSAMDLOK,77,0x000,0x000*2F
$PSAMDLOK,81,0x000,0x00F*50
$PSAMDLOK,87,0x000,0x00F*56
$GPGGA,190515.000,2200.1785,S,04755.8344,W,1,18,0.4,847.1,M,-4.3,M,,*44
$GPGLL,2200.1785,S,04755.8344,W,190515.000,A,A*5C
$GPVTG,267.2,T,,M,0.0,N,0.0,K,A*0C
$GPGSV,2,1,06,10,26,336,41,12,10,028,39,15,21,082,36,18,54,206,27*79
$GPGSV,2,2,06,23,58,349,43,31,14,289,37*7A
$GLGSV,2,1,08,65,35,107,43,66,31,036,46,77,12,358,30,78,45,304,41*6D
$GLGSV,2,2,08,79,31,235,30,81,27,220,29,87,06,117,24,88,31,158,42*61
$BDGSV,2,1,05,219,50,071,43,220,23,127,42,222,29,002,34,226,32,270,33*6D
$BDGSV,2,2,05,229,34,122,45*63
$GPGSA,A,3,23,18,10,15,31,12,,,,,,,1.4,0.4,1.2*3C
$GNGSA,A,3,65,66,77,78,79,81,88,,,,,,1.4,0.4,1.2*25
$BDGSA,A,3,219,220,222,226,229,,,,,,,,1.4,0.4,1.2*16
$GPRMC,190515.000,A,2200.1785,S,04755.8344,W,0.0,267.2,171022,,,A*6D
$PSAMCLK,2232,15513300,18,9661850,76350413,155133000*47
$GPGGA,190516.000,2200.1785,S,04755.8344,W,1,17,0.4,847.1,M,-4.3,M,,*48
$GPGLL,2200.1785,S,04755.8344,W,190516.000,A,A*5F
$GPVTG,267.6,T,,M,0.0,N,0.0,K,A*08
$GPGSV,2,1,06,10,26,336,41,12,10,028,39,15,21,082,35,18,54,205,26*78
$GPGSV,2,2,06,23,58,349,43,31,14,289,37*7A
$GLGSV,2,1,08,65,35,107,43,66,31,036,46,77,12,358,29,78,45,304,41*65
$GLGSV,2,2,08,79,31,235,30,81,27,220,29,87,06,117,23,88,31,158,41*65
$BDGSV,2,1,05,219,50,071,44,220,23,127,42,222,29,002,34,226,32,270,33*6A
$BDGSV,2,2,05,229,34,122,45*63
$GPGSA,A,3,23,10,15,31,12,,,,,,,,1.4,0.4,1.2*35
$GNGSA,A,3,65,66,77,78,79,81,88,,,,,,1.4,0.4,1.2*25
$BDGSA,A,3,219,220,222,226,229,,,,,,,,1.4,0.4,1.2*16
$GPRMC,190516.000,A,2200.1785,S,04755.8344,W,0.0,267.6,171022,,,A*6A
$PSAMCLK,2232,15513400,17,9661856,76411744,155134000*4D
$PSAMDLOK,66,0x00F,0x000*59
$PSAMDLOK,65,0x00F,0x000*5A
$PSAMDLOK,78,0x00F,0x000*56
$PSAMDLOK,88,0x00F,0x000*59
$PSAMDLOK,79,0x00F,0x000*57
$PSAMDLOK,77,0x00F,0x000*59
$PSAMDLOK,81,0x000,0x00F*50
$PSAMDLOK,87,0x000,0x00F*56
$GPGGA,190517.000,2200.1785,S,04755.8344,W,1,18,0.4,847.1,M,-4.3,M,,*46
$GPGLL,2200.1785,S,04755.8344,W,190517.000,A,A*5E
$GPVTG,267.8,T,,M,0.0,N,0.0,K,A*06
$GPGSV,2,1,06,10,26,336,41,12,10,028,39,15,21,082,35,18,54,205,25*7B
$GPGSV,2,2,06,23,58,349,43,31,14,289,37*7A
$GLGSV,2,1,08,65,35,107,43,66,31,036,45,77,12,358,29,78,45,304,41*66
$GLGSV,2,2,08,79,31,235,30,81,27,220,28,87,06,117,23,88,31,158,41*64
$BDGSV,2,1,05,219,50,071,44,220,23,127,42,222,29,002,34,226,32,270,33*6A
$BDGSV,2,2,05,229,34,122,45*63
$GPGSA,A,3,23,10,15,31,12,,,,,,,,1.2,0.4,1.2*33
$GNGSA,A,3,65,66,77,78,79,81,87,88,,,,,1.2,0.4,1.2*2C
$BDGSA,A,3,219,220,222,226,229,,,,,,,,1.2,0.4,1.2*10
$GPRMC,190517.000,A,2200.1785,S,04755.8344,W,0.0,267.8,171022,,,A*65
$PSAMCLK,2232,15513500,18,9661859,76473075,155135000*4C
$GPGGA,190518.000,2200.1785,S,04755.8344,W,1,18,0.4,847.1,M,-4.3,M,,*49
$GPGLL,2200.1785,S,04755.8344,W,190518.000,A,A*51
$GPVTG,267.9,T,,M,0.0,N,0.0,K,A*07
$GPGSV,2,1,06,10,26,336,40,12,10,028,39,15,21,082,36,18,54,205,25*79
$GPGSV,2,2,06,23,58,349,43,31,14,289,37*7A
$GLGSV,2,1,08,65,35,107,43,66,31,036,45,77,12,358,29,78,45,304,41*66
$GLGSV,2,2,08,79,31,235,30,81,27,220,28,87,06,117,23,88,31,158,40*65
$BDGSV,2,1,05,219,50,071,45,220,23,127,42,222,29,002,34,226,32,270,33*6B
$BDGSV,2,2,05,229,34,122,45*63
$GPGSA,A,3,23,10,15,31,12,,,,,,,,1.2,0.4,1.2*33
$GNGSA,A,3,65,66,77,78,79,81,87,88,,,,,1.2,0.4,1.2*2C
$BDGSA,A,3,219,220,222,226,229,,,,,,,,1.2,0.4,1.2*10
$GPRMC,190518.000,A,2200.1785,S,04755.8344,W,0.0,267.9,171022,,,A*6B
$PSAMCLK,2232,15513600,18,9661851,76534405,155136000*45
$PSAMDLOK,23,0x3FF,0x000*2D
$PSAMDLOK,12,0x3FF,0x000*2F
$PSAMDLOK,10,0x3FF,0x000*2D
$PSAMDLOK,31,0x3FF,0x000*2E
$PSAMDLOK,15,0x3FF,0x000*28
$PSAMDLOK,18,0x001,0x3FC*21
$PSAMDLOK,66,0x00F,0x000*59
$PSAMDLOK,65,0x00F,0x000*5A
$PSAMDLOK,78,0x00F,0x000*56
$PSAMDLOK,88,0x00F,0x000*59
$PSAMDLOK,79,0x00F,0x000*57
$PSAMDLOK,77,0x00F,0x000*59
$PSAMDLOK,81,0x000,0x00F*50
$PSAMDLOK,87,0x000,0x00F*56
$GPGGA,190519.000,2200.1785,S,04755.8344,W,1,19,0.4,847.1,M,-4.3,M,,*49
$GPGLL,2200.1785,S,04755.8344,W,190519.000,A,A*50
$GPVTG,267.9,T,,M,0.0,N,0.0,K,A*07
$GPGSV,2,1,06,10,26,336,40,12,10,028,39,15,21,082,36,18,54,205,24*78
$GPGSV,2,2,06,23,58,349,43,31,14,289,37*7A
$GLGSV,2,1,08,65,35,107,43,66,31,036,45,77,12,358,29,78,45,304,41*66
$GLGSV,2,2,08,79,31,235,30,81,27,220,28,87,06,117,23,88,31,158,40*65
$BDGSV,2,1,05,219,50,071,45,220,23,127,42,222,29,002,34,226,32,270,33*6B
$BDGSV,2,2,05,229,34,122,45*63
$GPGSA,A,3,23,18,10,15,31,12,,,,,,,1.2,0.4,1.0*38
$GNGSA,A,3,65,66,77,78,79,81,87,88,,,,,1.2,0.4,1.0*2E
$BDGSA,A,3,219,220,222,226,229,,,,,,,,1.2,0.4,1.0*12
$GPRMC,190519.000,A,2200.1785,S,04755.8344,W,0.0,267.9,171022,,,A*6A
$PSAMCLK,2232,15513700,19,9661847,76595736,155137000*4B
$GPGGA,190520.000,2200.1785,S,04755.8344,W,1,19,0.4,847.1,M,-4.3,M,,*43
$GPGLL,2200.1785,S,04755.8344,W,190520.000,A,A*5A
$GPVTG,268.0,T,,M,0.0,N,0.0,K,A*01
$GPGSV,2,1,06,10,26,336,40,12,10,028,39,15,21,082,36,18,54,205,24*78
$GPGSV,2,2,06,23,58,349,43,31,14,289,37*7A
$GLGSV,2,1,08,65,35,107,43,66,31,036,45,77,12,358,29,78,45,304,42*65
$GLGSV,2,2,08,79,31,235,30,81,27,220,27,87,06,117,22,88,31,158,40*6B
$BDGSV,2,1,05,219,50,071,45,220,23,127,42,222,29,002,34,226,32,270,32*6A
$BDGSV,2,2,05,229,34,122,45*63
$GPGSA,A,3,23,18,10,15,31,12,,,,,,,1.2,0.4,1.0*38
$GNGSA,A,3,65,66,77,78,79,81,87,88,,,,,1.2,0.4,1.0*2E
$BDGSA,A,3,219,220,222,226,229,,,,,,,,1.2,0.4,1.0*12
$GPRMC,190520.000,A,2200.1785,S,04755.8344,W,0.0,268.0,171022,,,A*66
$PSAMCLK,2232,15513800,19,9661836,76657066,155138000*42
$PSAMDLOK,157,0x3FF,0x000*1F
$PSAMDLOK,167,0x3FF,0x000*1C
$PSAMDLOK,66,0x00F,0x000*59
$PSAMDLOK,65,0x00F,0x000*5A
$PSAMDLOK,158,0x3FF,0x000*10
$PSAMDLOK,78,0x00F,0x000*56
$PSAMDLOK,88,0x00F,0x000*59
$PSAMDLOK,160,0x3FF,0x000*1B
$PSAMDLOK,164,0x3FF,0x001*1E
$PSAMDLOK,79,0x00F,0x000*57
$PSAMDLOK,77,0x00F,0x000*59
$PSAMDLOK,81,0x00F,0x00F*26
$PSAMDLOK,87,0x00F,0x00F*20
$GPGGA,190521.000,2200.1785,S,04755.8344,W,1,19,0.4,847.1,M,-4.3,M,,*42
$GPGLL,2200.1785,S,04755.8344,W,190521.000,A,A*5B
$GPVTG,268.0,T,,M,0.0,N,0.0,K,A*01
$GPGSV,2,1,06,10,26,336,40,12,10,028,39,15,21,082,36,18,54,205,24*78
$GPGSV,2,2,06,23,58,349,43,31,14,289,37*7A
$GLGSV,2,1,08,65,35,108,43,66,31,036,45,77,12,358,29,78,45,304,42*6A
$GLGSV,2,2,08,79,31,235,30,81,28,220,27,87,06,117,22,88,31,158,39*6A
$BDGSV,2,1,05,219,50,071,45,220,23,127,42,222,29,002,34,226,32,270,32*6A
$BDGSV,2,2,05,229,34,122,45*63
$GPGSA,A,3,23,18,10,15,31,12,,,,,,,1.2,0.4,1.0*38
$GNGSA,A,3,65,66,77,78,79,81,87,88,,,,,1.2,0.4,1.0*2E
$BDGSA,A,3,219,220,222,226,229,,,,,,,,1.2,0.4,1.0*12
$GPRMC,190521.000,A,2200.1785,S,04755.8344,W,0.0,268.0,171022,,,A*67
$PSAMCLK,2232,15513900,19,9661855,76718396,155139000*41
$GPGGA,190522.000,2200.1785,S,04755.8344,W,1,19,0.4,847.1,M,-4.3,M,,*41
$GPGLL,2200.1785,S,04755.8344,W,190522.000,A,A*58
$GPVTG,268.0,T,,M,0.0,N,0.0,K,A*01
$GPGSV,2,1,06,10,26,336,40,12,10,028,39,15,21,082,36,18,54,205,24*78
$GPGSV,2,2,06,23,58,349,43,31,14,289,37*7A
$GLGSV,2,1,08,65,35,108,43,66,31,036,45,77,12,358,29,78,45,304,42*6A
$GLGSV,2,2,08,79,31,235,30,81,28,220,27,87,06,117,22,88,31,158,39*6A
$BDGSV,2,1,05,219,50,071,45,220,23,127,42,222,29,002,34,226,32,270,32*6A
$BDGSV,2,2,05,229,34,122,45*63
$GPGSA,A,3,23,18,10,15,31,12,,,,,,,1.2,0.4,1.0*38
$GNGSA,A,3,65,66,77,78,79,81,87,88,,,,,1.2,0.4,1.0*2E
$BDGSA,A,3,219,220,222,226,229,,,,,,,,1.2,0.4,1.0*12
$GPRMC,190522.000,A,2200.1785,S,04755.8344,W,0.0,268.0,171022,,,A*64
$PSAMCLK,2232,15514000,19,9661842,76779725,155140000*4C
$PSAMDLOK,66,0x00F,0x000*59
$PSAMDLOK,65,0x00F,0x000*5A
$PSAMDLOK,78,0x00F,0x000*56
$PSAMDLOK,88,0x00F,0x000*59
$PSAMDLOK,79,0x00F,0x000*57
$PSAMDLOK,77,0x00F,0x000*59
$PSAMDLOK,81,0x00F,0x00F*26
$PSAMDLOK,87,0x000,0x00F*56
$GPGGA,190523.000,2200.1785,S,04755.8344,W,1,19,0.4,847.1,M,-4.3,M,,*40
$GPGLL,2200.1785,S,04755.8344,W,190523.000,A,A*59
$GPVTG,268.0,T,,M,0.0,N,0.0,K,A*01
$GPGSV,2,1,06,10,26,336,40,12,10,028,40,15,21,082,36,18,54,205,23*71
$GPGSV,2,2,06,23,58,349,43,31,14,289,37*7A
$GLGSV,2,1,08,65,35,108,43,66,31,036,45,77,12,358,29,78,45,304,42*6A
$GLGSV,2,2,08,79,31,235,31,81,28,220,27,87,06,117,22,88,31,158,39*6B
$BDGSV,2,1,05,219,50,071,46,220,23,127,42,222,29,002,34,226,32,270,32*69
$BDGSV,2,2,05,229,34,122,45*63
$GPGSA,A,3,23,18,10,15,31,12,,,,,,,1.2,0.4,1.0*38
$GNGSA,A,3,65,66,77,78,79,81,87,88,,,,,1.2,0.4,1.0*2E
$BDGSA,A,3,219,220,222,226,229,,,,,,,,1.2,0.4,1.0*12
$GPRMC,190523.000,A,2200.1785,S,04755.8344,W,0.0,268.0,171022,,,A*65
$PSAMCLK,2232,15514100,19,9661822,76841054,155141000*4F
$GPGGA,190524.000,2200.1785,S,04755.8344,W,1,18,0.4,847.1,M,-4.3,M,,*46
$GPGLL,2200.1785,S,04755.8344,W,190524.000,A,A*5E
$GPVTG,268.0,T,,M,0.0,N,0.0,K,A*01
$GPGSV,2,1,06,10,26,336,40,12,10,028,40,15,21,082,36,18,54,205,23*71
$GPGSV,2,2,06,23,58,349,43,31,14,289,37*7A
$GLGSV,2,1,08,65,35,108,43,66,31,036,45,77,12,358,29,78,45,304,42*6A
$GLGSV,2,2,08,79,31,235,31,81,28,220,27,87,06,117,22,88,31,157,38*65
$BDGSV,2,1,05,219,50,071,46,220,23,127,42,222,29,002,34,226,32,270,33*68
$BDGSV,2,2,05,229,34,122,45*63
$GPGSA,A,3,23,10,15,31,12,,,,,,,,1.2,0.4,1.2*33
$GNGSA,A,3,65,66,77,78,79,81,87,88,,,,,1.2,0.4,1.2*2C
$BDGSA,A,3,219,220,222,226,229,,,,,,,,1.2,0.4,1.2*10
$GPRMC,190524.000,A,2200.1785,S,04755.8344,W,0.0,268.0,171022,,,A*62
$PSAMCLK,2232,15514200,18,9661824,76902383,155142000*47
$PSAMDLOK,23,0x3FF,0x000*2D
$PSAMDLOK,12,0x3FF,0x000*2F
$PSAMDLOK,10,0x3FF,0x000*2D
$PSAMDLOK,31,0x3FF,0x000*2E
$PSAMDLOK,15,0x3FF,0x000*28
$PSAMDLOK,18,0x007,0x3FF*22
$PSAMDLOK,66,0x00F,0x000*59
$PSAMDLOK,65,0x00F,0x000*5A
$PSAMDLOK,78,0x00F,0x000*56
$PSAMDLOK,88,0x00F,0x000*59
$PSAMDLOK,79,0x00F,0x000*57
$PSAMDLOK,77,0x00F,0x000*59
$PSAMDLOK,81,0x00F,0x00F*26
$PSAMDLOK,87,0x000,0x00F*56
$GPGGA,190525.000,2200.1785,S,04755.8344,W,1,18,0.4,847.1,M,-4.3,M,,*47
$GPGLL,2200.1785,S,04755.8344,W,190525.000,A,A*5F
$GPVTG,268.0,T,,M,0.0,N,0.0,K,A*01
$GPGSV,2,1,06,10,26,336,40,12,10,028,40,15,21,082,36,18,54,205,23*71
$GPGSV,2,2,06,23,58,349,43,31,14,289,37*7A
$GLGSV,2,1,08,65,35,108,43,66,31,036,45,77,12,358,29,78,45,304,42*6A
$GLGSV,2,2,08,79,31,235,31,81,28,220,27,87,06,117,22,88,31,157,38*65
$BDGSV,2,1,05,219,50,071,46,220,23,127,42,222,29,002,34,226,32,270,33*68
$BDGSV,2,2,05,229,34,122,45*63
$GPGSA,A,3,23,10,15,31,12,,,,,,,,1.2,0.4,1.2*33
$GNGSA,A,3,65,66,77,78,79,81,87,88,,,,,1.2,0.4,1.2*2C
$BDGSA,A,3,219,220,222,226,229,,,,,,,,1.2,0.4,1.2*10
$GPRMC,190525.000,A,2200.1785,S,04755.8344,W,0.0,268.0,171022,,,A*63
$PSAMCLK,2232,15514300,18,9661835,76963713,155143000*4D
$GPGGA,190526.000,2200.1785,S,04755.8344,W,1,19,0.4,847.1,M,-4.3,M,,*45
$GPGLL,2200.1785,S,04755.8344,W,190526.000,A,A*5C
$GPVTG,268.0,T,,M,0.0,N,0.0,K,A*01
$GPGSV,2,1,06,10,26,336,40,12,10,028,40,15,21,082,36,18,54,205,22*70
$GPGSV,2,2,06,23,58,349,43,31,14,289,38*75
$GLGSV,2,1,08,65,35,108,43,66,31,036,45,77,12,358,28,78,45,304,42*6B
$GLGSV,2,2,08,79,31,235,31,81,28,220,27,87,06,117,22,88,31,157,38*65
$BDGSV,2,1,05,219,50,071,46,220,23,127,43,222,29,002,34,226,32,271,33*68
$BDGSV,2,2,05,229,34,122,45*63
$GPGSA,A,3,23,18,10,15,31,12,,,,,,,1.2,0.4,1.0*38
$GNGSA,A,3,65,66,77,78,79,81,87,88,,,,,1.2,0.4,1.0*2E
$BDGSA,A,3,219,220,222,226,229,,,,,,,,1.2,0.4,1.0*12
$GPRMC,190526.000,A,2200.1785,S,04755.8344,W,0.0,268.0,171022,,,A*60
$PSAMCLK,2232,15514400,19,9661833,77025041,155144000*40
$PSAMDLOK,157,0x3FF,0x000*1F
$PSAMDLOK,167,0x3FF,0x000*1C
$PSAMDLOK,66,0x00F,0x000*59
$PSAMDLOK,65,0x00F,0x000*5A
$PSAMDLOK,158,0x3FF,0x000*10
$PSAMDLOK,78,0x00F,0x000*56
$PSAMDLOK,88,0x00F,0x000*59
$PSAMDLOK,160,0x3FF,0x000*1B
$PSAMDLOK,164,0x3FF,0x000*1F
$PSAMDLOK,79,0x00F,0x000*57
$PSAMDLOK,77,0x00F,0x000*59
$PSAMDLOK,81,0x00F,0x00F*26
$PSAMDLOK,87,0x000,0x00F*56
$GPGGA,190527.000,2200.1785,S,04755.8344,W,1,19,0.4,847.1,M,-4.3,M,,*44
$GPGLL,2200.1785,S,04755.8344,W,190527.000,A,A*5D
$GPVTG,268.0,T,,M,0.0,N,0.0,K,A*01
$GPGSV,2,1,06,10,26,336,40,12,10,028,40,15,21,082,36,18,54,205,22*70
$GPGSV,2,2,06,23,58,349,43,31,14,289,38*75
$GLGSV,2,1,08,65,35,108,43,66,31,036,45,77,12,358,28,78,45,304,42*6B
$GLGSV,2,2,08,79,31,235,31,81,28,220,26,87,06,117,22,88,31,157,38*64
$BDGSV,2,1,05,219,50,071,46,220,23,127,43,222,29,002,35,226,32,271,33*69
$BDGSV,2,2,05,229,34,122,45*63
$GPGSA,A,3,23,18,10,15,31,12,,,,,,,1.2,0.4,1.0*38
$GNGSA,A,3,65,66,77,78,79,81,87,88,,,,,1.2,0.4,1.0*2E
$BDGSA,A,3,219,220,222,226,229,,,,,,,,1.2,0.4,1.0*12
$GPRMC,190527.000,A,2200.1785,S,04755.8344,W,0.0,268.0,171022,,,A*61
$PSAMCLK,2232,15514500,19,9661823,77086370,155145000*49
$GPGGA,190528.000,2200.1785,S,04755.8344,W,1,19,0.4,847.1,M,-4.3,M,,*4B
$GPGLL,2200.1785,S,04755.8344,W,190528.000,A,A*52
$GPVTG,268.0,T,,M,0.0,N,0.0,K,A*01
$GPGSV,2,1,06,10,26,336,40,12,10,028,40,15,21,082,36,18,54,205,22*70
$GPGSV,2,2,06,23,58,349,43,31,14,289,38*75
$GLGSV,2,1,08,65,35,108,43,66,31,036,45,77,12,358,28,78,45,304,42*6B
$GLGSV,2,2,08,79,31,235,32,81,28,220,26,87,06,117,22,88,31,157,38*67
$BDGSV,2,1,05,219,50,071,46,220,23,127,43,222,29,002,35,226,32,271,33*69
$BDGSV,2,2,05,229,34,122,45*63
$GPGSA,A,3,23,18,10,15,31,12,,,,,,,1.2,0.4,1.0*38
$GNGSA,A,3,65,66,77,78,79,81,87,88,,,,,1.2,0.4,1.0*2E
$BDGSA,A,3,219,220,222,226,229,,,,,,,,1.2,0.4,1.0*12
$GPRMC,190528.000,A,2200.1785,S,04755.8344,W,0.0,268.0,171022,,,A*6E
$PSAMCLK,2232,15514600,19,9661830,77147699,155146000*45
$PSAMDLOK,66,0x00F,0x000*59
$PSAMDLOK,65,0x00F,0x000*5A
$PSAMDLOK,78,0x00F,0x000*56
$PSAMDLOK,88,0x00F,0x000*59
$PSAMDLOK,79,0x00F,0x000*57
$PSAMDLOK,77,0x00F,0x000*59
$PSAMDLOK,81,0x00F,0x00F*26
$PSAMDLOK,87,0x000,0x00F*56
$GPGGA,190529.000,2200.1785,S,04755.8344,W,1,19,0.4,847.1,M,-4.3,M,,*4A
$GPGLL,2200.1785,S,04755.8344,W,190529.000,A,A*53
$GPVTG,268.0,T,,M,0.0,N,0.0,K,A*01
$GPGSV,2,1,06,10,26,336,40,12,10,028,40,15,21,082,36,18,54,205,22*70
$GPGSV,2,2,06,23,58,349,43,31,14,289,38*75
$GLGSV,2,1,08,65,35,108,43,66,31,036,45,77,12,358,28,78,45,304,42*6B
$GLGSV,2,2,08,79,31,235,32,81,28,220,26,87,06,117,22,88,31,157,38*67
$BDGSV,2,1,05,219,50,071,46,220,23,127,43,222,29,002,35,226,32,271,33*69
$BDGSV,2,2,05,229,34,122,45*63
$GPGSA,A,3,23,18,10,15,31,12,,,,,,,1.2,0.4,1.0*38
$GNGSA,A,3,65,66,77,78,79,81,87,88,,,,,1.2,0.4,1.0*2E
$BDGSA,A,3,219,220,222,226,229,,,,,,,,1.2,0.4,1.0*12
$GPRMC,190529.000,A,2200.1785,S,04755.8344,W,0.0,268.0,171022,,,A*6F
$PSAMCLK,2232,15514700,19,9661825,77209028,155147000*44
$GPGGA,190530.000,2200.1785,S,04755.8344,W,1,19,0.4,847.1,M,-4.3,M,,*42
$GPGLL,2200.1785,S,04755.8344,W,190530.000,A,A*5B
$GPVTG,268.0,T,,M,0.0,N,0.0,K,A*01
$GPGSV,2,1,06,10,26,336,40,12,10,028,40,15,21,082,36,18,54,205,21*73
$GPGSV,2,2,06,23,58,349,43,31,14,289,38*75
$GLGSV,2,1,08,65,35,108,43,66,31,036,45,77,12,358,28,78,45,304,42*6B
$GLGSV,2,2,08,79,31,235,32,81,28,220,26,87,06,117,22,88,31,157,38*67
$BDGSV,2,1,05,219,50,071,46,220,23,127,43,222,29,002,35,226,32,271,33*69
$BDGSV,2,2,05,229,34,122,45*63
$GPGSA,A,3,23,18,10,15,31,12,,,,,,,1.2,0.4,1.0*38
$GNGSA,A,3,65,66,77,78,79,81,87,88,,,,,1.2,0.4,1.0*2E
$BDGSA,A,3,219,220,222,226,229,,,,,,,,1.2,0.4,1.0*12
$GPRMC,190530.000,A,2200.1785,S,04755.8344,W,0.0,268.0,171022,,,A*67
$PSAMCLK,2232,15514800,19,9661823,77270356,155148000*46
$PSAMDLOK,23,0x3FF,0x000*2D
$PSAMDLOK,12,0x3FF,0x000*2F
$PSAMDLOK,10,0x3FF,0x000*2D
$PSAMDLOK,31,0x3FF,0x000*2E
$PSAMDLOK,15,0x3FF,0x000*28
$PSAMDLOK,18,0x1C0,0x3FF*57
$PSAMDLOK,66,0x00F,0x000*59
$PSAMDLOK,65,0x00F,0x000*5A
$PSAMDLOK,78,0x00F,0x000*56
$PSAMDLOK,88,0x00F,0x000*59
$PSAMDLOK,79,0x00F,0x000*57
$PSAMDLOK,77,0x000,0x00F*59
$PSAMDLOK,81,0x00F,0x00F*26
$PSAMDLOK,87,0x000,0x00F*56
$GPGGA,190531.000,2200.1785,S,04755.8344,W,1,19,0.4,847.1,M,-4.3,M,,*43
$GPGLL,2200.1785,S,04755.8344,W,190531.000,A,A*5A
$GPVTG,268.0,T,,M,0.0,N,0.0,K,A*01
$GPGSV,2,1,06,10,26,336,40,12,10,028,40,15,21,082,36,18,54,205,21*73
$GPGSV,2,2,06,23,58,349,43,31,14,289,38*75
$GLGSV,2,1,08,65,35,108,43,66,31,036,45,77,12,358,28,78,45,304,43*6A
$GLGSV,2,2,08,79,31,235,32,81,28,220,26,87,06,117,22,88,31,157,37*68
$BDGSV,2,1,05,219,50,071,46,220,23,127,43,222,29,002,35,226,32,271,34*6E
$BDGSV,2,2,05,229,34,122,45*63
$GPGSA,A,3,23,18,10,15,31,12,,,,,,,1.2,0.4,1.0*38
$GNGSA,A,3,65,66,77,78,79,81,87,88,,,,,1.2,0.4,1.0*2E
$BDGSA,A,3,219,220,222,226,229,,,,,,,,1.2,0.4,1.0*12
$GPRMC,190531.000,A,2200.1785,S,04755.8344,W,0.0,268.0,171022,,,A*66
$PSAMCLK,2232,15514900,19,9661829,77331685,155149000*43
$GPGGA,190532.000,2200.1785,S,04755.8344,W,1,19,0.4,847.1,M,-4.3,M,,*40
$GPGLL,2200.1785,S,04755.8344,W,190532.000,A,A*59
$GPVTG,268.0,T,,M,0.0,N,0.0,K,A*01
$GPGSV,2,1,06,10,26,336,39,12,10,028,40,15,21,082,35,18,54,205,21*7E
$GPGSV,2,2,06,23,58,349,43,31,14,289,38*75
$GLGSV,2,1,08,65,35,108,43,66,31,036,44,77,12,358,28,78,45,304,43*6B
$GLGSV,2,2,08,79,31,235,33,81,28,220,26,87,06,117,22,88,31,157,37*69
$BDGSV,2,1,05,219,50,071,46,220,23,127,43,222,29,002,35,226,32,271,34*6E
$BDGSV,2,2,05,229,34,122,45*63
$GPGSA,A,3,23,18,10,15,31,12,,,,,,,1.2,0.4,1.0*38
$GNGSA,A,3,65,66,77,78,79,81,87,88,,,,,1.2,0.4,1.0*2E
$BDGSA,A,3,219,220,222,226,229,,,,,,,,1.2,0.4,1.0*12
$GPRMC,190532.000,A,2200.1785,S,04755.8344,W,0.0,268.0,171022,,,A*65
$PSAMCLK,2232,15515000,19,9661840,77393014,155150000*4A
$PSAMDLOK,157,0x3FF,0x000*1F
$PSAMDLOK,167,0x3FF,0x000*1C
$PSAMDLOK,66,0x00F,0x000*59
$PSAMDLOK,65,0x00F,0x000*5A
$PSAMDLOK,78,0x00F,0x000*56
$PSAMDLOK,158,0x3FF,0x000*10
$PSAMDLOK,88,0x00F,0x000*59
$PSAMDLOK,160,0x3FF,0x000*1B
$PSAMDLOK,164,0x3FF,0x000*1F
$PSAMDLOK,79,0x00F,0x000*57
$PSAMDLOK,77,0x00F,0x00F*2F
$PSAMDLOK,81,0x000,0x00F*50
$PSAMDLOK,87,0x000,0x00F*56
$GPGGA,190533.000,2200.1785,S,04755.8344,W,1,19,0.4,847.1,M,-4.3,M,,*41
$GPGLL,2200.1785,S,04755.8344,W,190533.000,A,A*58
$GPVTG,268.0,T,,M,0.0,N,0.0,K,A*01
$GPGSV,2,1,06,10,26,336,39,12,10,028,40,15,21,082,35,18,54,205,21*7E
$GPGSV,2,2,06,23,58,349,43,31,14,289,38*75
$GLGSV,2,1,08,65,35,108,43,66,31,036,44,77,12,358,28,78,45,304,43*6B
$GLGSV,2,2,08,79,31,235,33,81,28,220,26,87,06,117,22,88,31,157,37*69
$BDGSV,2,1,05,219,50,071,46,220,23,127,43,222,29,002,35,226,32,271,34*6E
$BDGSV,2,2,05,229,34,122,45*63
$GPGSA,A,3,23,18,10,15,31,12,,,,,,,1.2,0.4,1.0*38
$GNGSA,A,3,65,66,77,78,79,81,87,88,,,,,1.2,0.4,1.0*2E
$BDGSA,A,3,219,220,222,226,229,,,,,,,,1.2,0.4,1.0*12
$GPRMC,190533.000,A,2200.1785,S,04755.8344,W,0.0,268.0,171022,,,A*64
$PSAMCLK,2232,15515100,19,9661820,77454343,155151000*41
$GPGGA,190534.000,2200.1785,S,04755.8344,W,1,19,0.4,847.1,M,-4.3,M,,*46
$GPGLL,2200.1785,S,04755.8344,W,190534.000,A,A*5F
$GPVTG,268.0,T,,M,0.0,N,0.0,K,A*01
$GPGSV,2,1,06,10,26,336,39,12,10,028,40,15,21,082,35,18,54,205,21*7E
$GPGSV,2,2,06,23,58,349,43,31,14,289,38*75
$GLGSV,2,1,08,65,35,108,43,66,31,036,44,77,12,358,28,78,45,304,43*6B
$GLGSV,2,2,08,79,31,235,33,81,28,220,26,87,06,117,22,88,31,157,37*69
$BDGSV,2,1,05,219,50,071,46,220,23,127,43,222,29,002,35,226,32,271,34*6E
$BDGSV,2,2,05,229,34,122,45*63
$GPGSA,A,3,23,18,10,15,31,12,,,,,,,1.2,0.4,1.0*38
$GNGSA,A,3,65,66,77,78,79,81,87,88,,,,,1.2,0.4,1.0*2E
$BDGSA,A,3,219,220,222,226,229,,,,,,,,1.2,0.4,1.0*12
$GPRMC,190534.000,A,2200.1785,S,04755.8344,W,0.0,268.0,171022,,,A*63
$PSAMCLK,2232,15515200,19,9661823,77515672,155152000*41
$PSAMDLOK,66,0x00F,0x000*59
$PSAMDLOK,78,0x00F,0x000*56
$PSAMDLOK,65,0x00F,0x000*5A
$PSAMDLOK,88,0x00F,0x000*59
$PSAMDLOK,79,0x00F,0x000*57
$PSAMDLOK,77,0x00F,0x00F*2F
$PSAMDLOK,81,0x000,0x00F*50
$PSAMDLOK,87,0x000,0x00F*56
$GPGGA,190535.000,2200.1785,S,04755.8344,W,1,19,0.4,847.1,M,-4.3,M,,*47
$GPGLL,2200.1785,S,04755.8344,W,190535.000,A,A*5E
$GPVTG,268.0,T,,M,0.0,N,0.0,K,A*01
$GPGSV,2,1,06,10,26,336,39,12,10,028,40,15,21,082,34,18,54,205,22*7C
$GPGSV,2,2,06,23,58,349,43,31,14,289,38*75
$GLGSV,2,1,08,65,35,108,43,66,31,036,44,77,12,358,28,78,45,304,43*6B
$GLGSV,2,2,08,79,31,235,33,81,28,220,26,87,06,117,22,88,31,157,37*69
$BDGSV,2,1,05,219,50,071,46,220,23,127,43,222,29,002,35,226,32,271,34*6E
$BDGSV,2,2,05,229,34,122,45*63
$GPGSA,A,3,23,18,10,15,31,12,,,,,,,1.2,0.4,1.0*38
$GNGSA,A,3,65,66,77,78,79,81,87,88,,,,,1.2,0.4,1.0*2E
$BDGSA,A,3,219,220,222,226,229,,,,,,,,1.2,0.4,1.0*12
$GPRMC,190535.000,A,2200.1785,S,04755.8344,W,0.0,268.0,171022,,,A*62
$PSAMCLK,2232,15515300,19,9661821,77577001,155153000*45
$GPGGA,190536.000,2200.1785,S,04755.8344,W,1,18,0.4,847.1,M,-4.3,M,,*45
$GPGLL,2200.1785,S,04755.8344,W,190536.000,A,A*5D
$GPVTG,268.0,T,,M,0.0,N,0.0,K,A*01
$GPGSV,2,1,06,10,26,336,39,12,10,028,40,15,21,082,34,18,54,205,26*78
$GPGSV,2,2,06,23,58,349,43,31,14,289,38*75
$GLGSV,2,1,08,65,35,108,43,66,31,036,44,77,12,358,28,78,45,304,43*6B
$GLGSV,2,2,08,79,31,235,33,81,28,220,26,87,06,117,22,88,31,157,37*69
$BDGSV,2,1,05,219,50,071,46,220,23,127,43,222,29,002,35,226,32,271,34*6E
$BDGSV,2,2,05,229,34,122,45*63
$GPGSA,A,3,23,18,10,15,31,12,,,,,,,1.4,0.4,1.2*3C
$GNGSA,A,3,65,66,77,78,79,81,88,,,,,,1.4,0.4,1.2*25
$BDGSA,A,3,219,220,222,226,229,,,,,,,,1.4,0.4,1.2*16
$GPRMC,190536.000,A,2200.1785,S,04755.8344,W,0.0,268.0,171022,,,A*61
$PSAMCLK,2232,15515400,18,9661826,77638329,155154000*42
$PSAMDLOK,23,0x3FF,0x000*2D
$PSAMDLOK,12,0x3FF,0x000*2F
$PSAMDLOK,10,0x3FF,0x000*2D
$PSAMDLOK,31,0x3FF,0x000*2E
$PSAMDLOK,15,0x3FF,0x000*28
$PSAMDLOK,18,0x3D0,0x3FF*52
$PSAMDLOK,78,0x00F,0x000*56
$PSAMDLOK,66,0x00F,0x000*59
$PSAMDLOK,65,0x00F,0x000*5A
$PSAMDLOK,88,0x00F,0x000*59
$PSAMDLOK,79,0x00F,0x000*57
$PSAMDLOK,77,0x00F,0x00F*2F
$PSAMDLOK,81,0x000,0x00F*50
$PSAMDLOK,87,0x000,0x00F*56
$GPGGA,190537.000,2200.1785,S,04755.8344,W,1,19,0.4,847.1,M,-4.3,M,,*45
$GPGLL,2200.1785,S,04755.8344,W,190537.000,A,A*5C
$GPVTG,268.0,T,,M,0.0,N,0.0,K,A*01
$GPGSV,2,1,06,10,26,336,39,12,10,028,40,15,21,082,34,18,54,205,27*79
$GPGSV,2,2,06,23,58,349,43,31,14,289,39*74
$GLGSV,2,1,08,65,35,108,43,66,31,036,44,77,12,358,28,78,45,304,44*6C
$GLGSV,2,2,08,79,31,235,33,81,28,220,26,87,06,117,22,88,31,157,37*69
$BDGSV,2,1,05,219,50,071,46,220,23,127,43,222,29,002,35,226,32,271,34*6E
$BDGSV,2,2,05,229,34,122,45*63
$GPGSA,A,3,23,18,10,15,31,12,,,,,,,1.2,0.4,1.0*38
$GNGSA,A,3,65,66,77,78,79,81,87,88,,,,,1.2,0.4,1.0*2E
$BDGSA,A,3,219,220,222,226,229,,,,,,,,1.2,0.4,1.0*12
$GPRMC,190537.000,A,2200.1785,S,04755.8344,W,0.0,268.0,171022,,,A*60
$PSAMCLK,2232,15515500,19,9661820,77699658,155155000*4D
$GPGGA,190538.000,2200.1785,S,04755.8344,W,1,18,0.4,847.1,M,-4.3,M,,*4B
$GPGLL,2200.1785,S,04755.8344,W,190538.000,A,A*53
$GPVTG,268.0,T,,M,0.0,N,0.0,K,A*01
$GPGSV,2,1,06,10,26,336,39,12,10,028,40,15,21,082,34,18,54,205,27*79
$GPGSV,2,2,06,23,58,349,43,31,14,289,39*74
$GLGSV,2,1,08,65,35,108,43,66,31,036,44,77,12,358,27,78,45,304,44*63
$GLGSV,2,2,08,79,31,235,33,81,28,220,25,87,06,117,22,88,31,157,37*6A
$BDGSV,2,1,05,219,50,071,46,220,23,127,43,222,29,002,35,226,32,271,34*6E
$BDGSV,2,2,05,229,34,122,45*63
$GPGSA,A,3,23,18,10,15,31,12,,,,,,,1.4,0.4,1.2*3C
$GNGSA,A,3,65,66,77,78,79,81,88,,,,,,1.4,0.4,1.2*25
$BDGSA,A,3,219,220,222,226,229,,,,,,,,1.4,0.4,1.2*16
$GPRMC,190538.000,A,2200.1785,S,04755.8344,W,0.0,268.0,171022,,,A*6F
$PSAMCLK,2232,15515600,18,9661822,77760987,155156000*44
$PSAMDLOK,157,0x3FF,0x000*1F
$PSAMDLOK,167,0x3FF,0x000*1C
$PSAMDLOK,78,0x00F,0x000*56
$PSAMDLOK,66,0x00F,0x000*59
$PSAMDLOK,65,0x00F,0x000*5A
$PSAMDLOK,158,0x3FF,0x000*10
$PSAMDLOK,88,0x00F,0x000*59
$PSAMDLOK,160,0x3FF,0x000*1B
$PSAMDLOK,164,0x3FF,0x000*1F
$PSAMDLOK,79,0x00F,0x000*57
$PSAMDLOK,77,0x00F,0x00F*2F
$PSAMDLOK,87,0x000,0x00F*56
$PSAMDLOK,81,0x000,0x00F*50
$GPGGA,190539.000,2200.1785,S,04755.8344,W,1,18,0.4,847.1,M,-4.3,M,,*4A
$GPGLL,2200.1785,S,04755.8344,W,190539.000,A,A*52
$GPVTG,268.0,T,,M,0.0,N,0.0,K,A*01
$GPGSV,2,1,06,10,26,336,39,12,10,028,40,15,21,082,33,18,54,205,27*7E
$GPGSV,2,2,06,23,58,349,43,31,14,289,39*74
$GLGSV,2,1,08,65,35,108,43,66,31,036,44,77,12,358,27,78,45,304,44*63
$GLGSV,2,2,08,79,31,235,33,81,28,220,25,87,06,117,22,88,31,157,37*6A
$BDGSV,2,1,05,219,50,071,46,220,23,127,43,222,29,002,35,226,32,271,34*6E
$BDGSV,2,2,05,229,34,122,45*63
$GPGSA,A,3,23,18,10,15,31,12,,,,,,,1.4,0.4,1.2*3C
$GNGSA,A,3,65,66,77,78,79,81,88,,,,,,1.4,0.4,1.2*25
$BDGSA,A,3,219,220,222,226,229,,,,,,,,1.4,0.4,1.2*16
$GPRMC,190539.000,A,2200.1785,S,04755.8344,W,0.0,268.0,171022,,,A*6E
$PSAMCLK,2232,15515700,18,9661819,77822315,155157000*44
$GPGGA,190540.000,2200.1785,S,04755.8344,W,1,17,0.6,847.1,M,-4.3,M,,*49
$GPGLL,2200.1785,S,04755.8344,W,190540.000,A,A*5C
$GPVTG,268.0,T,,M,0.0,N,0.0,K,A*01
$GPGSV,2,1,06,10,26,336,39,12,10,028,40,15,21,082,33,18,54,205,27*7E
$GPGSV,2,2,06,23,58,349,42,31,14,289,39*75
$GLGSV,2,1,08,65,35,108,43,66,31,036,44,77,12,358,27,78,45,304,44*63
$GLGSV,2,2,08,79,31,235,33,81,28,219,24,87,06,117,22,88,31,157,37*61
$BDGSV,2,1,05,219,50,071,46,220,23,127,43,222,29,002,35,226,32,271,34*6E
$BDGSV,2,2,05,229,34,122,45*63
$GPGSA,A,3,23,18,10,15,31,12,,,,,,,1.4,0.6,1.2*3E
$GNGSA,A,3,65,66,77,78,79,88,,,,,,,1.4,0.6,1.2*2E
$BDGSA,A,3,219,220,222,226,229,,,,,,,,1.4,0.6,1.2*14
$GPRMC,190540.000,A,2200.1785,S,04755.8344,W,0.0,268.0,171022,,,A*60
$PSAMCLK,2232,15515800,17,9661829,77883644,155158000*42
$PSAMDLOK,78,0x00F,0x000*56
$PSAMDLOK,65,0x00F,0x000*5A
$PSAMDLOK,66,0x00F,0x000*59
$PSAMDLOK,88,0x00F,0x000*59
$PSAMDLOK,79,0x00F,0x000*57
$PSAMDLOK,77,0x00F,0x000*59
$PSAMDLOK,87,0x000,0x00F*56
$PSAMDLOK,81,0x000,0x00F*50
$GPGGA,190541.000,2200.1785,S,04755.8344,W,1,18,0.4,847.1,M,-4.3,M,,*45
$GPGLL,2200.1785,S,04755.8344,W,190541.000,A,A*5D
$GPVTG,268.0,T,,M,0.0,N,0.0,K,A*01
$GPGSV,2,1,06,10,26,336,39,12,10,028,40,15,21,082,33,18,54,205,26*7F
$GPGSV,2,2,06,23,58,349,42,31,14,289,39*75
$GLGSV,2,1,08,65,35,108,43,66,31,036,44,77,12,358,27,78,45,304,44*63
$GLGSV,2,2,08,79,31,235,33,81,28,219,24,87,06,117,22,88,31,157,37*61
$BDGSV,2,1,05,219,50,071,46,220,23,127,43,222,29,002,35,226,32,271,34*6E
$BDGSV,2,2,05,229,34,122,45*63
$GPGSA,A,3,23,18,10,15,31,12,,,,,,,1.2,0.4,1.0*38
$GNGSA,A,3,65,66,77,78,79,87,88,,,,,,1.2,0.4,1.0*27
$BDGSA,A,3,219,220,222,226,229,,,,,,,,1.2,0.4,1.0*12
$GPRMC,190541.000,A,2200.1785,S,04755.8344,W,0.0,268.0,171022,,,A*61
$PSAMCLK,2232,15515900,18,9661835,77944973,155159000*41
$GPGGA,190542.000,2200.1785,S,04755.8344,W,1,18,0.4,847.1,M,-4.3,M,,*46
$GPGLL,2200.1785,S,04755.8344,W,190542.000,A,A*5E
$GPVTG,268.0,T,,M,0.0,N,0.0,K,A*01
$GPGSV,2,1,06,10,26,336,39,12,10,028,40,15,21,082,33,18,54,205,26*7F
$GPGSV,2,2,06,23,58,349,42,31,14,289,39*75
$GLGSV,2,1,08,65,35,108,43,66,31,036,44,77,12,358,27,78,45,304,44*63
$GLGSV,2,2,08,79,31,235,33,81,28,219,25,87,06,117,22,88,31,157,37*60
$BDGSV,2,1,05,219,50,071,46,220,23,127,43,222,29,002,35,226,32,271,34*6E
$BDGSV,2,2,05,229,34,122,45*63
$GPGSA,A,3,23,18,10,15,31,12,,,,,,,1.4,0.4,1.2*3C
$GNGSA,A,3,65,66,77,78,79,81,88,,,,,,1.4,0.4,1.2*25
$BDGSA,A,3,219,220,222,226,229,,,,,,,,1.4,0.4,1.2*16
$GPRMC,190542.000,A,2200.1785,S,04755.8344,W,0.0,268.0,171022,,,A*62
$PSAMCLK,2232,15516000,18,9661836,78006302,155160000*4E
$PSAMDLOK,23,0x3FF,0x000*2D
$PSAMDLOK,12,0x3FF,0x000*2F
$PSAMDLOK,31,0x3FF,0x000*2E
$PSAMDLOK,10,0x3FF,0x000*2D
$PSAMDLOK,15,0x3FF,0x000*28
$PSAMDLOK,18,0x0AF,0x3FF*22
$PSAMDLOK,78,0x00F,0x000*56
$PSAMDLOK,65,0x00F,0x000*5A
$PSAMDLOK,66,0x00F,0x000*59
$PSAMDLOK,88,0x00F,0x000*59
$PSAMDLOK,79,0x00F,0x000*57
$PSAMDLOK,77,0x00F,0x000*59
$PSAMDLOK,81,0x000,0x00F*50
$PSAMDLOK,87,0x000,0x00F*56
$GPGGA,190543.000,2200.1785,S,04755.8344,W,1,17,0.4,847.1,M,-4.3,M,,*48
$GPGLL,2200.1785,S,04755.8344,W,190543.000,A,A*5F
$GPVTG,268.0,T,,M,0.0,N,0.0,K,A*01
$GPGSV,2,1,06,10,26,336,39,12,10,028,40,15,21,082,33,18,54,205,25*7C
$GPGSV,2,2,06,23,58,349,42,31,14,289,39*75
$GLGSV,2,1,08,65,35,108,43,66,31,036,44,77,12,358,27,78,45,304,44*63
$GLGSV,2,2,08,79,31,235,33,81,28,219,25,87,06,117,22,88,31,157,37*60
$BDGSV,2,1,05,219,50,071,46,220,23,127,43,222,29,002,35,226,32,271,34*6E
$BDGSV,2,2,05,229,34,122,45*63
$GPGSA,A,3,23,10,15,31,12,,,,,,,,1.4,0.4,1.2*35
$GNGSA,A,3,65,66,77,78,79,81,88,,,,,,1.4,0.4,1.2*25
$BDGSA,A,3,219,220,222,226,229,,,,,,,,1.4,0.4,1.2*16
$GPRMC,190543.000,A,2200.1785,S,04755.8344,W,0.0,268.0,171022,,,A*63
$PSAMCLK,2232,15516100,17,9661832,78067631,155161000*47
$GPGGA,190544.000,2200.1785,S,04755.8344,W,1,17,0.4,847.1,M,-4.3,M,,*4F
$GPGLL,2200.1785,S,04755.8344,W,190544.000,A,A*58
$GPVTG,268.0,T,,M,0.0,N,0.0,K,A*01
$GPGSV,2,1,06,10,26,336,39,12,10,028,40,15,21,082,33,18,54,205,24*7D
$GPGSV,2,2,06,23,58,349,42,31,14,289,39*75
$GLGSV,2,1,08,65,35,108,43,66,31,036,44,77,12,358,27,78,45,304,44*63
$GLGSV,2,2,08,79,31,235,33,81,28,219,25,87,06,117,22,88,31,157,37*60
$BDGSV,2,1,05,219,50,071,46,220,23,127,43,222,29,002,36,226,32,271,34*6D
$BDGSV,2,2,05,229,34,122,44*62
$GPGSA,A,3,23,10,15,31,12,,,,,,,,1.4,0.4,1.2*35
$GNGSA,A,3,65,66,77,78,79,81,88,,,,,,1.4,0.4,1.2*25
$BDGSA,A,3,219,220,222,226,229,,,,,,,,1.4,0.4,1.2*16
$GPRMC,190544.000,A,2200.1785,S,04755.8344,W,0.0,268.0,171022,,,A*64
$PSAMCLK,2232,15516200,17,9661829,78128959,155162000*46
$PSAMDLOK,157,0x3FF,0x000*1F
$PSAMDLOK,78,0x00F,0x000*56
$PSAMDLOK,167,0x3FF,0x000*1C
$PSAMDLOK,66,0x00F,0x000*59
$PSAMDLOK,65,0x00F,0x000*5A
$PSAMDLOK,158,0x3FF,0x000*10
$PSAMDLOK,88,0x00F,0x000*59
$PSAMDLOK,160,0x3FF,0x000*1B
$PSAMDLOK,164,0x3FF,0x000*1F
$PSAMDLOK,79,0x00F,0x000*57
$PSAMDLOK,77,0x00F,0x000*59
$PSAMDLOK,81,0x000,0x00F*50
$PSAMDLOK,87,0x000,0x00F*56
$GPGGA,190545.000,2200.1785,S,04755.8344,W,1,18,0.4,847.1,M,-4.3,M,,*41
$GPGLL,2200.1785,S,04755.8344,W,190545.000,A,A*59
$GPVTG,268.0,T,,M,0.0,N,0.0,K,A*01
$GPGSV,2,1,06,10,26,336,39,12,10,028,40,15,21,082,33,18,54,205,24*7D
$GPGSV,2,2,06,23,58,349,42,31,14,289,39*75
$GLGSV,2,1,08,65,35,108,43,66,31,036,44,77,11,358,27,78,45,304,44*60
$GLGSV,2,2,08,79,31,235,33,81,28,219,25,87,06,117,22,88,31,157,37*60
$BDGSV,2,1,05,219,50,071,46,220,23,127,43,222,29,002,36,226,32,271,34*6D
$BDGSV,2,2,05,229,34,122,44*62
$GPGSA,A,3,23,10,15,31,12,,,,,,,,1.2,0.4,1.2*33
$GNGSA,A,3,65,66,77,78,79,81,87,88,,,,,1.2,0.4,1.2*2C
$BDGSA,A,3,219,220,222,226,229,,,,,,,,1.2,0.4,1.2*10
$GPRMC,190545.000,A,2200.1785,S,04755.8344,W,0.0,268.0,171022,,,A*65
$PSAMCLK,2232,15516300,18,9661830,78190288,155163000*45
$GPGGA,190546.000,2200.1785,S,04755.8344,W,1,19,0.4,847.1,M,-4.3,M,,*43
$GPGLL,2200.1785,S,04755.8344,W,190546.000,A,A*5A
$GPVTG,268.0,T,,M,0.0,N,0.0,K,A*01
$GPGSV,2,1,06,10,26,336,39,12,10,028,40,15,21,082,33,18,54,205,23*7A
$GPGSV,2,2,06,23,58,349,42,31,14,289,39*75
$GLGSV,2,1,08,65,35,108,43,66,31,036,44,77,11,358,27,78,45,304,44*60
$GLGSV,2,2,08,79,31,235,33,81,28,219,25,87,06,117,21,88,31,157,37*63
$BDGSV,2,1,05,219,50,071,46,220,23,127,43,222,29,002,36,226,32,271,34*6D
$BDGSV,2,2,05,229,34,122,44*62
$GPGSA,A,3,23,18,10,15,31,12,,,,,,,1.2,0.4,1.0*38
$GNGSA,A,3,65,66,77,78,79,81,87,88,,,,,1.2,0.4,1.0*2E
$BDGSA,A,3,219,220,222,226,229,,,,,,,,1.2,0.4,1.0*12
$GPRMC,190546.000,A,2200.1785,S,04755.8344,W,0.0,268.0,171022,,,A*66
$PSAMCLK,2232,15516400,19,9661816,78251616,155164000*4D
$PSAMDLOK,66,0x00F,0x000*59
$PSAMDLOK,78,0x00F,0x000*56
$PSAMDLOK,65,0x00F,0x000*5A
$PSAMDLOK,88,0x00F,0x000*59
$PSAMDLOK,79,0x00F,0x000*57
$PSAMDLOK,77,0x00F,0x000*59
$PSAMDLOK,81,0x000,0x00F*50
$PSAMDLOK,87,0x000,0x00F*56
$GPGGA,190547.000,2200.1785,S,04755.8344,W,1,19,0.4,847.1,M,-4.3,M,,*42
$GPGLL,2200.1785,S,04755.8344,W,190547.000,A,A*5B
$GPVTG,268.0,T,,M,0.0,N,0.0,K,A*01
$GPGSV,2,1,06,10,26,336,39,12,10,028,40,15,21,082,33,18,54,205,23*7A
$GPGSV,2,2,06,23,58,349,42,31,14,289,39*75
$GLGSV,2,1,08,65,35,108,43,66,31,036,44,77,11,358,27,78,45,305,44*61
$GLGSV,2,2,08,79,31,235,33,81,28,219,24,87,06,117,21,88,31,157,37*62
$BDGSV,2,1,05,219,50,071,46,220,23,127,43,222,29,002,36,226,32,271,34*6D
$BDGSV,2,2,05,229,34,122,44*62
$GPGSA,A,3,23,18,10,15,31,12,,,,,,,1.2,0.4,1.0*38
$GNGSA,A,3,65,66,77,78,79,81,87,88,,,,,1.2,0.4,1.0*2E
$BDGSA,A,3,219,220,222,226,229,,,,,,,,1.2,0.4,1.0*12
$GPRMC,190547.000,A,2200.1785,S,04755.8344,W,0.0,268.0,171022,,,A*67
$PSAMCLK,2232,15516500,19,9661815,78312944,155165000*40
$GPGGA,190548.000,2200.1785,S,04755.8344,W,1,19,0.4,847.1,M,-4.3,M,,*4D
$GPGLL,2200.1785,S,04755.8344,W,190548.000,A,A*54
$GPVTG,268.0,T,,M,0.0,N,0.0,K,A*01
$GPGSV,2,1,06,10,26,336,39,12,10,028,40,15,21,082,33,18,54,205,22*7B
$GPGSV,2,2,06,23,58,349,42,31,14,289,39*75
$GLGSV,2,1,08,65,35,108,43,66,31,036,44,77,11,358,27,78,45,305,44*61
$GLGSV,2,2,08,79,31,235,33,81,28,219,24,87,06,117,21,88,31,157,37*62
$BDGSV,2,1,05,219,50,071,46,220,23,127,43,222,29,002,36,226,32,271,34*6D
$BDGSV,2,2,05,229,34,122,44*62
$GPGSA,A,3,23,18,10,15,31,12,,,,,,,1.2,0.4,1.0*38
$GNGSA,A,3,65,66,77,78,79,81,87,88,,,,,1.2,0.4,1.0*2E
$BDGSA,A,3,219,220,222,226,229,,,,,,,,1.2,0.4,1.0*12
$GPRMC,190548.000,A,2200.1785,S,04755.8344,W,0.0,268.0,171022,,,A*68
$PSAMCLK,2232,15516600,19,9661810,78374273,155166000*4A
$PSAMDLOK,23,0x3FF,0x000*2D
$PSAMDLOK,31,0x3FF,0x000*2E
$PSAMDLOK,12,0x3FF,0x000*2F
$PSAMDLOK,10,0x3FF,0x000*2D
$PSAMDLOK,15,0x3FF,0x000*28
$PSAMDLOK,18,0x100,0x3FF*24
$PSAMDLOK,66,0x00F,0x000*59
$PSAMDLOK,78,0x00F,0x000*56
$PSAMDLOK,65,0x00F,0x000*5A
$PSAMDLOK,88,0x00F,0x000*59
$PSAMDLOK,79,0x00F,0x000*57
$PSAMDLOK,77,0x00F,0x000*59
$PSAMDLOK,81,0x000,0x00F*50
$PSAMDLOK,87,0x000,0x00F*56
$GPGGA,190549.000,2200.1785,S,04755.8344,W,1,18,0.4,847.1,M,-4.3,M,,*4D
$GPGLL,2200.1785,S,04755.8344,W,190549.000,A,A*55
$GPVTG,268.0,T,,M,0.0,N,0.0,K,A*01
$GPGSV,2,1,06,10,26,336,39,12,10,028,40,15,21,082,33,18,54,205,23*7A
$GPGSV,2,2,06,23,58,349,42,31,14,289,39*75
$GLGSV,2,1,08,65,35,108,43,66,31,036,44,77,11,358,27,78,45,305,44*61
$GLGSV,2,2,08,79,31,235,33,81,28,219,24,87,06,117,21,88,31,157,37*62
$BDGSV,2,1,05,219,50,071,46,220,23,127,43,222,29,002,36,226,32,271,34*6D
$BDGSV,2,2,05,229,34,122,44*62
$GPGSA,A,3,23,18,10,15,31,12,,,,,,,1.2,0.4,1.0*38
$GNGSA,A,3,65,66,77,78,79,87,88,,,,,,1.2,0.4,1.0*27
$BDGSA,A,3,219,220,222,226,229,,,,,,,,1.2,0.4,1.0*12
$GPRMC,190549.000,A,2200.1785,S,04755.8344,W,0.0,268.0,171022,,,A*69
$PSAMCLK,2232,15516700,18,9661804,78435601,155167000*4D
$GPGGA,190550.000,2200.1785,S,04755.8344,W,1,18,0.4,847.1,M,-4.3,M,,*45
$GPGLL,2200.1785,S,04755.8344,W,190550.000,A,A*5D
$GPVTG,268.0,T,,M,0.0,N,0.0,K,A*01
$GPGSV,2,1,06,10,26,336,38,12,10,028,40,15,21,082,33,18,54,205,24*7C
$GPGSV,2,2,06,23,58,349,42,31,14,289,39*75
$GLGSV,2,1,08,65,35,108,43,66,31,036,44,77,11,358,27,78,45,305,44*61
$GLGSV,2,2,08,79,31,235,33,81,28,219,24,87,06,117,21,88,31,157,37*62
$BDGSV,2,1,05,219,50,071,46,220,23,127,43,222,29,002,36,226,32,271,34*6D
$BDGSV,2,2,05,229,34,122,44*62
$GPGSA,A,3,23,18,10,15,31,12,,,,,,,1.2,0.4,1.0*38
$GNGSA,A,3,65,66,77,78,79,87,88,,,,,,1.2,0.4,1.0*27
$BDGSA,A,3,219,220,222,226,229,,,,,,,,1.2,0.4,1.0*12
$GPRMC,190550.000,A,2200.1785,S,04755.8344,W,0.0,268.0,171022,,,A*61
$PSAMCLK,2232,15516800,18,9661822,78496929,155168000*45
$PSAMDLOK,157,0x3FF,0x000*1F
$PSAMDLOK,66,0x00F,0x000*59
$PSAMDLOK,167,0x3FF,0x000*1C
$PSAMDLOK,78,0x00F,0x000*56
$PSAMDLOK,65,0x00F,0x000*5A
$PSAMDLOK,158,0x3FF,0x000*10
$PSAMDLOK,88,0x00F,0x000*59
$PSAMDLOK,160,0x3FF,0x000*1B
$PSAMDLOK,164,0x3FF,0x000*1F
$PSAMDLOK,79,0x00F,0x000*57
$PSAMDLOK,77,0x00F,0x000*59
$PSAMDLOK,81,0x000,0x00F*50
$PSAMDLOK,87,0x000,0x00F*56
$GPGGA,190551.000,2200.1785,S,04755.8344,W,1,18,0.4,847.1,M,-4.3,M,,*44
$GPGLL,2200.1785,S,04755.8344,W,190551.000,A,A*5C
$GPVTG,268.0,T,,M,0.0,N,0.0,K,A*01
$GPGSV,2,1,06,10,26,336,38,12,10,028,40,15,21,082,33,18,54,205,24*7C
$GPGSV,2,2,06,23,58,349,42,31,14,289,39*75
$GLGSV,2,1,08,65,35,108,43,66,31,036,44,77,11,358,27,78,45,305,44*61
$GLGSV,2,2,08,79,31,235,33,81,28,219,24,87,06,117,21,88,31,157,37*62
$BDGSV,2,1,05,219,50,071,46,220,23,127,43,222,29,002,36,226,32,271,34*6D
$BDGSV,2,2,05,229,34,122,44*62
$GPGSA,A,3,23,18,10,15,31,12,,,,,,,1.2,0.4,1.0*38
$GNGSA,A,3,65,66,77,78,79,87,88,,,,,,1.2,0.4,1.0*27
$BDGSA,A,3,219,220,222,226,229,,,,,,,,1.2,0.4,1.0*12
$GPRMC,190551.000,A,2200.1785,S,04755.8344,W,0.0,268.0,171022,,,A*60
$PSAMCLK,2232,15516900,18,9661819,78558258,155169000*43
$GPGGA,190552.000,2200.1785,S,04755.8344,W,1,19,0.4,847.1,M,-4.3,M,,*46
$GPGLL,2200.1785,S,04755.8344,W,190552.000,A,A*5F
$GPVTG,268.0,T,,M,0.0,N,0.0,K,A*01
$GPGSV,2,1,06,10,26,336,38,12,10,028,40,15,21,082,33,18,54,205,24*7C
$GPGSV,2,2,06,23,58,349,42,31,14,289,39*75
$GLGSV,2,1,08,65,35,108,43,66,31,036,45,77,11,358,27,78,45,305,44*60
$GLGSV,2,2,08,79,31,235,33,81,28,219,23,87,06,117,21,88,31,157,37*65
$BDGSV,2,1,05,219,50,071,46,220,23,127,43,222,29,002,37,226,32,271,34*6C
$BDGSV,2,2,05,229,34,122,44*62
$GPGSA,A,3,23,18,10,15,31,12,,,,,,,1.2,0.4,1.0*38
$GNGSA,A,3,65,66,77,78,79,81,87,88,,,,,1.2,0.4,1.0*2E
$BDGSA,A,3,219,220,222,226,229,,,,,,,,1.2,0.4,1.0*12
$GPRMC,190552.000,A,2200.1785,S,04755.8344,W,0.0,268.0,171022,,,A*63
$PSAMCLK,2232,15517000,19,9661821,78619587,155170000*4A
$PSAMDLOK,66,0x00F,0x000*59
$PSAMDLOK,78,0x00F,0x000*56
$PSAMDLOK,65,0x00F,0x000*5A
$PSAMDLOK,88,0x00F,0x000*59
$PSAMDLOK,79,0x00F,0x000*57
$PSAMDLOK,77,0x00F,0x000*59
$PSAMDLOK,81,0x000,0x00F*50
$PSAMDLOK,87,0x000,0x00F*56
$GPGGA,190553.000,2200.1785,S,04755.8344,W,1,19,0.4,847.1,M,-4.3,M,,*47
$GPGLL,2200.1785,S,04755.8344,W,190553.000,A,A*5E
$GPVTG,268.0,T,,M,0.0,N,0.0,K,A*01
$GPGSV,2,1,06,10,26,336,38,12,10,028,40,15,21,082,32,18,54,205,24*7D
$GPGSV,2,2,06,23,58,349,42,31,14,289,39*75
$GLGSV,2,1,08,65,35,108,43,66,31,036,45,77,11,358,27,78,45,305,44*60
$GLGSV,2,2,08,79,31,235,33,81,28,219,23,87,06,117,21,88,31,157,37*65
$BDGSV,2,1,05,219,50,071,46,220,23,127,43,222,29,002,37,226,32,271,34*6C
$BDGSV,2,2,05,229,34,122,44*62
$GPGSA,A,3,23,18,10,15,31,12,,,,,,,1.2,0.4,1.0*38
$GNGSA,A,3,65,66,77,78,79,81,87,88,,,,,1.2,0.4,1.0*2E
$BDGSA,A,3,219,220,222,226,229,,,,,,,,1.2,0.4,1.0*12
$GPRMC,190553.000,A,2200.1785,S,04755.8344,W,0.0,268.0,171022,,,A*62
$PSAMCLK,2232,15517100,19,9661826,78680915,155171000*4A
$GPGGA,190554.000,2200.1785,S,04755.8344,W,1,19,0.4,847.1,M,-4.3,M,,*40
$GPGLL,2200.1785,S,04755.8344,W,190554.000,A,A*59
$GPVTG,268.0,T,,M,0.0,N,0.0,K,A*01
$GPGSV,2,1,06,10,26,336,38,12,10,028,39,15,21,082,32,18,54,205,24*73
$GPGSV,2,2,06,23,58,349,42,31,14,289,39*75
$GLGSV,2,1,08,65,35,108,43,66,31,036,45,77,11,358,27,78,45,305,44*60
$GLGSV,2,2,08,79,31,235,33,81,28,219,23,87,06,117,21,88,31,157,37*65
$BDGSV,2,1,05,219,50,071,46,220,23,127,43,222,29,002,37,226,32,271,34*6C
$BDGSV,2,2,05,229,34,122,44*62
$GPGSA,A,3,23,18,10,15,31,12,,,,,,,1.2,0.4,1.0*38
$GNGSA,A,3,65,66,77,78,79,81,87,88,,,,,1.2,0.4,1.0*2E
$BDGSA,A,3,219,220,222,226,229,,,,,,,,1.2,0.4,1.0*12
$GPRMC,190554.000,A,2200.1785,S,04755.8344,W,0.0,268.0,171022,,,A*65
$PSAMCLK,2232,15517200,19,9661805,78742244,155172000*4B
$PSAMDLOK,23,0x3FF,0x000*2D
$PSAMDLOK,12,0x3FF,0x000*2F
$PSAMDLOK,31,0x3FF,0x000*2E
$PSAMDLOK,10,0x3FF,0x000*2D
$PSAMDLOK,15,0x3FF,0x000*28
$PSAMDLOK,18,0x39B,0x3FF*5D
$PSAMDLOK,66,0x00F,0x000*59
$PSAMDLOK,78,0x00F,0x000*56
$PSAMDLOK,65,0x00F,0x000*5A
$PSAMDLOK,88,0x00F,0x000*59
$PSAMDLOK,79,0x00F,0x000*57
$PSAMDLOK,77,0x00F,0x000*59
$PSAMDLOK,81,0x000,0x00F*50
$PSAMDLOK,87,0x000,0x00F*56
$GPGGA,190555.000,2200.1785,S,04755.8344,W,1,19,0.4,847.1,M,-4.3,M,,*41
$GPGLL,2200.1785,S,04755.8344,W,190555.000,A,A*58
$GPVTG,268.0,T,,M,0.0,N,0.0,K,A*01
$GPGSV,2,1,06,10,26,336,38,12,10,028,39,15,21,082,32,18,54,205,25*72
$GPGSV,2,2,06,23,58,348,42,31,14,289,39*74
$GLGSV,2,1,08,65,35,108,43,66,31,036,45,77,11,358,27,78,45,305,44*60
$GLGSV,2,2,08,79,31,235,33,81,28,219,23,87,06,117,21,88,31,157,37*65
$BDGSV,2,1,05,219,50,071,46,220,23,127,43,222,29,002,37,226,32,271,34*6C
$BDGSV,2,2,05,229,34,122,44*62
$GPGSA,A,3,23,18,10,15,31,12,,,,,,,1.2,0.4,1.0*38
$GNGSA,A,3,65,66,77,78,79,81,87,88,,,,,1.2,0.4,1.0*2E
$BDGSA,A,3,219,220,222,226,229,,,,,,,,1.2,0.4,1.0*12
$GPRMC,190555.000,A,2200.1785,S,04755.8344,W,0.0,268.0,171022,,,A*64
$PSAMCLK,2232,15517300,19,9661810,78803572,155173000*47
$GPGGA,190556.000,2200.1785,S,04755.8344,W,1,19,0.4,847.1,M,-4.3,M,,*42
$GPGLL,2200.1785,S,04755.8344,W,190556.000,A,A*5B
$GPVTG,268.0,T,,M,0.0,N,0.0,K,A*01
$GPGSV,2,1,06,10,26,336,38,12,10,028,39,15,21,082,32,18,54,205,25*72
$GPGSV,2,2,06,23,58,348,42,31,14,289,39*74
$GLGSV,2,1,08,65,35,108,43,66,31,036,45,77,11,358,27,78,45,305,44*60
$GLGSV,2,2,08,79,31,235,33,81,28,219,23,87,06,117,20,88,31,157,37*64
$BDGSV,2,1,05,219,50,071,46,220,23,127,43,222,29,002,37,226,32,271,34*6C
$BDGSV,2,2,05,229,34,122,44*62
$GPGSA,A,3,23,18,10,15,31,12,,,,,,,1.2,0.4,1.0*38
$GNGSA,A,3,65,66,77,78,79,81,87,88,,,,,1.2,0.4,1.0*2E
$BDGSA,A,3,219,220,222,226,229,,,,,,,,1.2,0.4,1.0*12
$GPRMC,190556.000,A,2200.1785,S,04755.8344,W,0.0,268.0,171022,,,A*67
$PSAMCLK,2232,15517400,19,9661817,78864901,155174000*49
$PSAMDLOK,157,0x3FF,0x000*1F
$PSAMDLOK,66,0x00F,0x000*59
$PSAMDLOK,167,0x3FF,0x000*1C
$PSAMDLOK,78,0x00F,0x000*56
$PSAMDLOK,158,0x3FF,0x000*10
$PSAMDLOK,65,0x00F,0x000*5A
$PSAMDLOK,160,0x3FF,0x000*1B
$PSAMDLOK,88,0x00F,0x000*59
$PSAMDLOK,164,0x3FF,0x000*1F
$PSAMDLOK,79,0x00F,0x000*57
$PSAMDLOK,77,0x00F,0x000*59
$PSAMDLOK,81,0x000,0x00F*50
$PSAMDLOK,87,0x000,0x00F*56
$GPGGA,190557.000,2200.1785,S,04755.8344,W,1,19,0.4,847.1,M,-4.3,M,,*43
$GPGLL,2200.1785,S,04755.8344,W,190557.000,A,A*5A
$GPVTG,268.0,T,,M,0.0,N,0.0,K,A*01
$GPGSV,2,1,06,10,26,336,38,12,10,028,39,15,21,082,32,18,54,205,25*72
$GPGSV,2,2,06,23,58,348,42,31,14,289,39*74
$GLGSV,2,1,08,65,35,108,43,66,32,036,45,77,11,358,27,78,45,305,44*63
$GLGSV,2,2,08,79,31,235,33,81,28,219,23,87,06,117,20,88,31,157,37*64
$BDGSV,2,1,05,219,50,071,46,220,23,127,43,222,29,002,37,226,32,271,34*6C
$BDGSV,2,2,05,229,34,122,44*62
$GPGSA,A,3,23,18,10,15,31,12,,,,,,,1.2,0.4,1.0*38
$GNGSA,A,3,65,66,77,78,79,81,87,88,,,,,1.2,0.4,1.0*2E
$BDGSA,A,3,219,220,222,226,229,,,,,,,,1.2,0.4,1.0*12
$GPRMC,190557.000,A,2200.1785,S,04755.8344,W,0.0,268.0,171022,,,A*66
$PSAMCLK,2232,15517500,19,9661814,78926227,155175000*42
$GPGGA,190558.000,2200.1785,S,04755.8344,W,1,18,0.4,847.1,M,-4.3,M,,*4D
$GPGLL,2200.1785,S,04755.8344,W,190558.000,A,A*55
$GPVTG,268.0,T,,M,0.0,N,0.0,K,A*01
$GPGSV,2,1,06,10,26,336,38,12,10,028,39,15,21,082,32,18,54,205,25*72
$GPGSV,2,2,06,23,58,348,42,31,14,289,38*75
$GLGSV,2,1,08,65,35,108,43,66,32,036,45,77,11,358,27,78,45,305,44*63
$GLGSV,2,2,08,79,31,235,33,81,28,219,23,87,06,117,20,88,31,157,37*64
$BDGSV,2,1,05,219,50,071,46,220,23,127,43,222,29,002,37,226,32,271,34*6C
$BDGSV,2,2,05,229,34,122,44*62
$GPGSA,A,3,23,18,10,15,31,12,,,,,,,1.4,0.4,1.2*3C
$GNGSA,A,3,65,66,77,78,79,81,88,,,,,,1.4,0.4,1.2*25
$BDGSA,A,3,219,220,222,226,229,,,,,,,,1.4,0.4,1.2*16
$GPRMC,190558.000,A,2200.1785,S,04755.8344,W,0.0,268.0,171022,,,A*69
$PSAMCLK,2232,15517600,18,9661820,78987555,155176000*4D
$PSAMDLOK,66,0x00F,0x000*59
$PSAMDLOK,78,0x00F,0x000*56
$PSAMDLOK,65,0x00F,0x000*5A
$PSAMDLOK,88,0x00F,0x000*59
$PSAMDLOK,79,0x00F,0x000*57
$PSAMDLOK,77,0x00F,0x000*59
$PSAMDLOK,81,0x000,0x00F*50
$PSAMDLOK,87,0x000,0x00F*56
$GPGGA,190559.000,2200.1785,S,04755.8344,W,1,18,0.4,847.1,M,-4.3,M,,*4C
$GPGLL,2200.1785,S,04755.8344,W,190559.000,A,A*54
$GPVTG,268.0,T,,M,0.0,N,0.0,K,A*01
$GPGSV,2,1,06,10,26,336,37,12,10,028,39,15,21,082,31,18,54,205,25*7E
$GPGSV,2,2,06,23,58,348,42,31,14,289,38*75
$GLGSV,2,1,08,65,35,108,43,66,32,036,45,77,11,358,27,78,45,305,44*63
$GLGSV,2,2,08,79,31,235,33,81,28,219,23,87,06,117,19,88,31,157,37*6E
$BDGSV,2,1,05,219,50,071,46,220,23,127,43,222,29,002,37,226,32,271,34*6C
$BDGSV,2,2,05,229,34,122,44*62
$GPGSA,A,3,23,18,10,15,31,12,,,,,,,1.4,0.4,1.2*3C
$GNGSA,A,3,65,66,77,78,79,81,88,,,,,,1.4,0.4,1.2*25
$BDGSA,A,3,219,220,222,226,229,,,,,,,,1.4,0.4,1.2*16
$GPRMC,190559.000,A,2200.1785,S,04755.8344,W,0.0,268.0,171022,,,A*68
$PSAMCLK,2232,15517700,18,9661799,79048882,155177000*4C
$GPGGA,190600.000,2200.1785,S,04755.8344,W,1,18,0.4,847.1,M,-4.3,M,,*43
$GPGLL,2200.1785,S,04755.8344,W,190600.000,A,A*5B
$GPVTG,268.0,T,,M,0.0,N,0.0,K,A*01
$GPGSV,2,1,06,10,26,336,37,12,10,028,39,15,21,082,31,18,54,205,25*7E
$GPGSV,2,2,06,23,58,348,42,31,14,289,38*75
$GLGSV,2,1,08,65,35,108,43,66,32,036,45,77,11,358,27,78,45,305,43*64
$GLGSV,2,2,08,79,31,235,33,81,28,219,23,87,06,117,19,88,31,157,37*6E
$BDGSV,2,1,05,219,50,071,46,220,23,127,43,222,29,002,37,226,32,271,34*6C
$BDGSV,2,2,05,229,34,122,44*62
$GPGSA,A,3,23,18,10,15,31,12,,,,,,,1.4,0.4,1.2*3C
$GNGSA,A,3,65,66,77,78,79,81,88,,,,,,1.4,0.4,1.2*25
$BDGSA,A,3,219,220,222,226,229,,,,,,,,1.4,0.4,1.2*16
$GPRMC,190600.000,A,2200.1785,S,04755.8344,W,0.0,268.0,171022,,,A*67
$PSAMCLK,2232,15517800,18,9661814,79110210,155178000*4B
$PSAMDLOK,23,0x3FF,0x000*2D
$PSAMDLOK,12,0x3FF,0x000*2F
$PSAMDLOK,10,0x3FF,0x000*2D
$PSAMDLOK,31,0x3FF,0x000*2E
$PSAMDLOK,18,0x3FF,0x3FF*26
$PSAMDLOK,15,0x17F,0x3F0*2E
$PSAMDLOK,66,0x00F,0x000*59
$PSAMDLOK,78,0x00F,0x000*56
$PSAMDLOK,65,0x00F,0x000*5A
$PSAMDLOK,88,0x00F,0x000*59
$PSAMDLOK,79,0x00F,0x000*57
$PSAMDLOK,77,0x00F,0x000*59
$PSAMDLOK,81,0x000,0x00F*50
$PSAMDLOK,87,0x000,0x00F*56
$GPGGA,190601.000,2200.1785,S,04755.8344,W,1,18,0.4,847.1,M,-4.3,M,,*42
$GPGLL,2200.1785,S,04755.8344,W,190601.000,A,A*5A
$GPVTG,268.0,T,,M,0.0,N,0.0,K,A*01
$GPGSV,2,1,06,10,26,336,37,12,10,028,39,15,21,082,30,18,54,205,25*7F
$GPGSV,2,2,06,23,58,348,42,31,14,289,37*7A
$GLGSV,2,1,08,65,35,108,43,66,32,036,45,77,11,358,27,78,45,305,43*64
$GLGSV,2,2,08,79,31,235,33,81,28,219,23,87,06,117,18,88,31,157,37*6F
$BDGSV,2,1,05,219,50,071,46,220,23,127,43,222,29,002,37,226,32,271,34*6C
$BDGSV,2,2,05,229,34,122,44*62
$GPGSA,A,3,23,18,10,15,31,12,,,,,,,1.4,0.4,1.2*3C
$GNGSA,A,3,65,66,77,78,79,81,88,,,,,,1.4,0.4,1.2*25
$BDGSA,A,3,219,220,222,226,229,,,,,,,,1.4,0.4,1.2*16
$GPRMC,190601.000,A,2200.1785,S,04755.8344,W,0.0,268.0,171022,,,A*66
$PSAMCLK,2232,15517900,18,9661815,79171539,155179000*41
$GPGGA,190602.000,2200.1785,S,04755.8344,W,1,18,0.4,847.1,M,-4.3,M,,*41
$GPGLL,2200.1785,S,04755.8344,W,190602.000,A,A*59
$GPVTG,268.0,T,,M,0.0,N,0.0,K,A*01
$GPGSV,2,1,06,10,26,336,37,12,10,028,39,15,21,082,29,18,54,205,25*77
$GPGSV,2,2,06,23,58,348,42,31,14,289,37*7A
$GLGSV,2,1,08,65,35,108,43,66,32,036,45,77,11,358,27,78,45,305,43*64
$GLGSV,2,2,08,79,31,235,33,81,28,219,23,87,06,117,18,88,31,157,37*6F
$BDGSV,2,1,05,219,50,071,46,220,23,127,43,222,29,002,37,226,32,271,34*6C
$BDGSV,2,2,05,229,34,122,44*62
$GPGSA,A,3,23,18,10,15,31,12,,,,,,,1.4,0.4,1.2*3C
$GNGSA,A,3,65,66,77,78,79,81,88,,,,,,1.4,0.4,1.2*25
$BDGSA,A,3,219,220,222,226,229,,,,,,,,1.4,0.4,1.2*16
$GPRMC,190602.000,A,2200.1785,S,04755.8344,W,0.0,268.0,171022,,,A*65
$PSAMCLK,2232,15518000,18,9661809,79232867,155180000*4E
$PSAMDLOK,157,0x3FF,0x000*1F
$PSAMDLOK,66,0x00F,0x000*59
$PSAMDLOK,167,0x3FF,0x000*1C
$PSAMDLOK,78,0x00F,0x000*56
$PSAMDLOK,65,0x00F,0x000*5A
$PSAMDLOK,158,0x3FF,0x000*10
$PSAMDLOK,160,0x3FF,0x000*1B
$PSAMDLOK,88,0x00F,0x000*59
$PSAMDLOK,164,0x3FF,0x000*1F
$PSAMDLOK,79,0x00F,0x000*57
$PSAMDLOK,77,0x00F,0x000*59
$PSAMDLOK,81,0x000,0x00F*50
$PSAMDLOK,87,0x000,0x00F*56
$GPGGA,190603.000,2200.1785,S,04755.8344,W,1,17,0.6,847.1,M,-4.3,M,,*4D
$GPGLL,2200.1785,S,04755.8344,W,190603.000,A,A*58
$GPVTG,268.0,T,,M,0.0,N,0.0,K,A*01
$GPGSV,2,1,06,10,26,336,37,12,10,028,39,15,21,082,28,18,54,205,25*76
$GPGSV,2,2,06,23,58,348,43,31,14,289,37*7B
$GLGSV,2,1,08,65,35,108,43,66,32,036,45,77,11,358,27,78,45,305,43*64
$GLGSV,2,2,08,79,31,235,33,81,28,219,23,87,06,117,18,88,31,157,37*6F
$BDGSV,2,1,05,219,50,071,46,220,23,127,42,222,29,002,37,226,32,271,34*6D
$BDGSV,2,2,05,229,34,122,44*62
$GPGSA,A,3,23,18,10,15,31,12,,,,,,,1.4,0.6,1.2*3E
$GNGSA,A,3,65,66,77,78,79,88,,,,,,,1.4,0.6,1.2*2E
$BDGSA,A,3,219,220,222,226,229,,,,,,,,1.4,0.6,1.2*14
$GPRMC,190603.000,A,2200.1785,S,04755.8344,W,0.0,268.0,171022,,,A*64
$PSAMCLK,2232,15518100,17,9661809,79294196,155181000*4A
$GPGGA,190604.000,2200.1785,S,04755.8344,W,1,18,0.4,847.1,M,-4.3,M,,*47
$GPGLL,2200.1785,S,04755.8344,W,190604.000,A,A*5F
$GPVTG,268.0,T,,M,0.0,N,0.0,K,A*01
$GPGSV,2,1,06,10,26,336,37,12,10,028,39,15,21,082,28,18,54,205,25*76
$GPGSV,2,2,06,23,58,348,43,31,14,289,37*7B
$GLGSV,2,1,08,65,35,108,43,66,32,036,45,77,11,358,27,78,45,305,43*64
$GLGSV,2,2,08,79,31,235,33,81,28,219,22,87,06,117,22,88,31,157,37*67
$BDGSV,2,1,05,219,50,071,46,220,23,127,42,222,29,002,37,226,32,271,34*6D
$BDGSV,2,2,05,229,34,122,44*62
$GPGSA,A,3,23,18,10,31,12,,,,,,,,1.2,0.4,1.0*3C
$GNGSA,A,3,65,66,77,78,79,81,87,88,,,,,1.2,0.4,1.0*2E
$BDGSA,A,3,219,220,222,226,229,,,,,,,,1.2,0.4,1.0*12
$GPRMC,190604.000,A,2200.1785,S,04755.8344,W,0.0,268.0,171022,,,A*63
$PSAMCLK,2232,15518200,18,9661832,79355524,155182000*4C
$PSAMDLOK,66,0x00F,0x000*59
$PSAMDLOK,65,0x00F,0x000*5A
$PSAMDLOK,78,0x00F,0x000*56
$PSAMDLOK,88,0x00F,0x000*59
$PSAMDLOK,79,0x00F,0x000*57
$PSAMDLOK,77,0x00F,0x000*59
$PSAMDLOK,87,0x000,0x00F*56
$PSAMDLOK,81,0x000,0x00F*50
$GPGGA,190605.000,2200.1785,S,04755.8344,W,1,18,0.4,847.1,M,-4.3,M,,*46
$GPGLL,2200.1785,S,04755.8344,W,190605.000,A,A*5E
$GPVTG,268.0,T,,M,0.0,N,0.0,K,A*01
$GPGSV,2,1,06,10,26,336,37,12,10,028,39,15,21,082,27,18,54,205,26*7A
$GPGSV,2,2,06,23,58,348,43,31,14,289,36*7A
$GLGSV,2,1,08,65,35,108,43,66,32,036,45,77,11,358,27,78,45,305,43*64
$GLGSV,2,2,08,79,31,235,33,81,28,219,22,87,06,117,24,88,31,157,37*61
$BDGSV,2,1,05,219,50,071,46,220,23,127,42,222,29,002,37,226,32,271,34*6D
$BDGSV,2,2,05,229,34,122,44*62
$GPGSA,A,3,23,18,10,31,12,,,,,,,,1.2,0.4,1.0*3C
$GNGSA,A,3,65,66,77,78,79,81,87,88,,,,,1.2,0.4,1.0*2E
$BDGSA,A,3,219,220,222,226,229,,,,,,,,1.2,0.4,1.0*12
$GPRMC,190605.000,A,2200.1785,S,04755.8344,W,0.0,268.0,171022,,,A*62
$PSAMCLK,2232,15518300,18,9661810,79416853,155183000*41
$GPGGA,190606.000,2200.1785,S,04755.8344,W,1,19,0.4,847.1,M,-4.3,M,,*44
$GPGLL,2200.1785,S,04755.8344,W,190606.000,A,A*5D
$GPVTG,268.0,T,,M,0.0,N,0.0,K,A*01
$GPGSV,2,1,06,10,26,336,37,12,10,028,39,15,21,082,26,18,54,205,26*7B
$GPGSV,2,2,06,23,58,348,43,31,14,289,36*7A
$GLGSV,2,1,08,65,35,108,43,66,32,036,45,77,11,358,27,78,45,305,43*64
$GLGSV,2,2,08,79,31,235,33,81,28,219,22,87,06,117,24,88,31,157,37*61
$BDGSV,2,1,05,219,50,071,46,220,23,127,42,222,29,002,37,226,32,271,34*6D
$BDGSV,2,2,05,229,34,122,44*62
$GPGSA,A,3,23,18,10,15,31,12,,,,,,,1.2,0.4,1.0*38
$GNGSA,A,3,65,66,77,78,79,81,87,88,,,,,1.2,0.4,1.0*2E
$BDGSA,A,3,219,220,222,226,229,,,,,,,,1.2,0.4,1.0*12
$GPRMC,190606.000,A,2200.1785,S,04755.8344,W,0.0,268.0,171022,,,A*61
$PSAMCLK,2232,15518400,19,9661793,79478181,155184000*4A
$PSAMDLOK,23,0x3FF,0x000*2D
$PSAMDLOK,12,0x3FF,0x000*2F
$PSAMDLOK,10,0x3FF,0x000*2D
$PSAMDLOK,31,0x3FF,0x000*2E
$PSAMDLOK,18,0x3FF,0x3FF*26
$PSAMDLOK,15,0x300,0x3FF*2B
$PSAMDLOK,66,0x00F,0x000*59
$PSAMDLOK,65,0x00F,0x000*5A
$PSAMDLOK,78,0x00F,0x000*56
$PSAMDLOK,88,0x00F,0x000*59
$PSAMDLOK,79,0x00F,0x000*57
$PSAMDLOK,77,0x00F,0x000*59
$PSAMDLOK,87,0x000,0x00F*56
$PSAMDLOK,81,0x00F,0x00F*26
$GPGGA,190607.000,2200.1785,S,04755.8344,W,1,18,0.4,847.1,M,-4.3,M,,*44
$GPGLL,2200.1785,S,04755.8344,W,190607.000,A,A*5C
$GPVTG,268.0,T,,M,0.0,N,0.0,K,A*01
$GPGSV,2,1,06,10,26,336,37,12,10,028,39,15,21,082,26,18,54,205,26*7B
$GPGSV,2,2,06,23,58,348,43,31,14,289,36*7A
$GLGSV,2,1,08,65,35,108,42,66,32,036,45,77,11,358,27,78,45,305,43*65
$GLGSV,2,2,08,79,31,235,33,81,28,219,22,87,06,117,24,88,31,157,37*61
$BDGSV,2,1,05,219,50,071,46,220,23,127,42,222,29,002,37,226,32,271,34*6D
$BDGSV,2,2,05,229,34,122,44*62
$GPGSA,A,3,23,18,10,31,12,,,,,,,,1.2,0.4,1.0*3C
$GNGSA,A,3,65,66,77,78,79,81,87,88,,,,,1.2,0.4,1.0*2E
$BDGSA,A,3,219,220,222,226,229,,,,,,,,1.2,0.4,1.0*12
$GPRMC,190607.000,A,2200.1785,S,04755.8344,W,0.0,268.0,171022,,,A*60
$PSAMCLK,2232,15518500,18,9661793,79539510,155185000*43
$GPGGA,190608.000,2200.1785,S,04755.8344,W,1,18,0.4,847.1,M,-4.3,M,,*4B
$GPGLL,2200.1785,S,04755.8344,W,190608.000,A,A*53
$GPVTG,268.0,T,,M,0.0,N,0.0,K,A*01
$GPGSV,2,1,06,10,26,336,36,12,10,028,39,15,21,082,25,18,54,205,26*79
$GPGSV,2,2,06,23,58,348,43,31,14,289,36*7A
$GLGSV,2,1,08,65,35,108,42,66,32,036,45,77,11,358,27,78,45,305,43*65
$GLGSV,2,2,08,79,31,235,33,81,28,219,22,87,06,117,24,88,31,157,37*61
$BDGSV,2,1,05,219,50,071,46,220,23,127,42,222,29,002,37,226,32,271,34*6D
$BDGSV,2,2,05,229,34,122,44*62
$GPGSA,A,3,23,18,10,15,31,12,,,,,,,1.2,0.4,1.0*38
$GNGSA,A,3,65,66,77,78,79,87,88,,,,,,1.2,0.4,1.0*27
$BDGSA,A,3,219,220,222,226,229,,,,,,,,1.2,0.4,1.0*12
$GPRMC,190608.000,A,2200.1785,S,04755.8344,W,0.0,268.0,171022,,,A*6F
$PSAMCLK,2232,15518600,18,9661804,79600838,155186000*4C
$PSAMDLOK,157,0x3FF,0x000*1F
$PSAMDLOK,66,0x00F,0x000*59
$PSAMDLOK,167,0x3FF,0x000*1C
$PSAMDLOK,65,0x00F,0x000*5A
$PSAMDLOK,158,0x3FF,0x000*10
$PSAMDLOK,78,0x00F,0x000*56
$PSAMDLOK,160,0x3FF,0x000*1B
$PSAMDLOK,88,0x00F,0x000*59
$PSAMDLOK,164,0x3FF,0x000*1F
$PSAMDLOK,79,0x00F,0x000*57
$PSAMDLOK,77,0x00F,0x000*59
$PSAMDLOK,87,0x00F,0x00F*20
$PSAMDLOK,81,0x000,0x00F*50
$GPGGA,190609.000,2200.1785,S,04755.8344,W,1,18,0.4,847.1,M,-4.3,M,,*4A
$GPGLL,2200.1785,S,04755.8344,W,190609.000,A,A*52
$GPVTG,268.0,T,,M,0.0,N,0.0,K,A*01
$GPGSV,2,1,06,10,26,336,36,12,10,028,39,15,21,082,27,18,54,205,26*7B
$GPGSV,2,2,06,23,58,348,43,31,14,289,36*7A
